{
"type": "FeatureCollection",
"crs": { "type": "name", "properties": { "name": "urn:ogc:def:crs:OGC:1.3:CRS84" } },
"features": [
{ "type": "Feature", "properties": { "CplxID": 635.0, "Borough": "M", "CplxName": "South Ferry \/ Whitehall", "Routes": "R W 1", "CplxLat": 40.703087, "CplxLong": -74.012994, "E202104": 7070.5555555555557, "E202109": 11127.333333333334, "Pct": 0.57375658049815359, "PctCat": ">40%" }, "geometry": { "type": "Point", "coordinates": [ -74.012994, 40.703087 ] } },
{ "type": "Feature", "properties": { "CplxID": 86.0, "Borough": "Bk", "CplxName": "Cypress Hills", "Routes": "J", "CplxLat": 40.689941, "CplxLong": -73.87255, "E202104": 715.22222222222217, "E202109": 822.55555555555554, "Pct": 0.15006990834239559, "PctCat": "<=20%" }, "geometry": { "type": "Point", "coordinates": [ -73.87255, 40.689941 ] } },
{ "type": "Feature", "properties": { "CplxID": 85.0, "Borough": "Q", "CplxName": "75 St", "Routes": "J Z", "CplxLat": 40.691324, "CplxLong": -73.867139, "E202104": 1740.2222222222222, "E202109": 2418.6666666666665, "Pct": 0.3898608096028604, "PctCat": "21%~40%" }, "geometry": { "type": "Point", "coordinates": [ -73.867139, 40.691324 ] } },
{ "type": "Feature", "properties": { "CplxID": 84.0, "Borough": "Q", "CplxName": "85 St - Forest Pkwy", "Routes": "J", "CplxLat": 40.692435, "CplxLong": -73.86001, "E202104": 1787.7777777777778, "E202109": 2133.7777777777778, "Pct": 0.1935363579863269, "PctCat": "<=20%" }, "geometry": { "type": "Point", "coordinates": [ -73.86001, 40.692435 ] } },
{ "type": "Feature", "properties": { "CplxID": 83.0, "Borough": "Q", "CplxName": "Woodhaven Blvd", "Routes": "J Z", "CplxLat": 40.693879, "CplxLong": -73.851576, "E202104": 2190.3333333333335, "E202109": 2632.3333333333335, "Pct": 0.20179576928930146, "PctCat": "21%~40%" }, "geometry": { "type": "Point", "coordinates": [ -73.851576, 40.693879 ] } },
{ "type": "Feature", "properties": { "CplxID": 82.0, "Borough": "Q", "CplxName": "104 St", "Routes": "J Z", "CplxLat": 40.695178, "CplxLong": -73.84433, "E202104": 1234.7777777777778, "E202109": 1513.1111111111111, "Pct": 0.22541168001439749, "PctCat": "21%~40%" }, "geometry": { "type": "Point", "coordinates": [ -73.84433, 40.695178 ] } },
{ "type": "Feature", "properties": { "CplxID": 81.0, "Borough": "Q", "CplxName": "111 St", "Routes": "J", "CplxLat": 40.697418, "CplxLong": -73.836345, "E202104": 1005.7777777777778, "E202109": 1470.8888888888889, "Pct": 0.462439239946973, "PctCat": ">40%" }, "geometry": { "type": "Point", "coordinates": [ -73.836345, 40.697418 ] } },
{ "type": "Feature", "properties": { "CplxID": 80.0, "Borough": "Q", "CplxName": "121 St", "Routes": "J Z", "CplxLat": 40.700492, "CplxLong": -73.828294, "E202104": 1142.5555555555557, "E202109": 1238.0, "Pct": 0.083535933093455125, "PctCat": "<=20%" }, "geometry": { "type": "Point", "coordinates": [ -73.828294, 40.700492 ] } },
{ "type": "Feature", "properties": { "CplxID": 611.0, "Borough": "M", "CplxName": "Times Sq - 42 St \/ Port Authority Bus Terminal", "Routes": "N Q R W A C E 1 2 3 7 S", "CplxLat": 40.755905, "CplxLong": -73.986504, "E202104": 46040.666666666672, "E202109": 67518.555555555562, "Pct": 0.46649821655251639, "PctCat": ">40%" }, "geometry": { "type": "Point", "coordinates": [ -73.986504, 40.755905 ] } },
{ "type": "Feature", "properties": { "CplxID": 164.0, "Borough": "M", "CplxName": "34 St - Penn Station", "Routes": "A C E", "CplxLat": 40.752287, "CplxLong": -73.993391, "E202104": 19038.0, "E202109": 28037.555555555555, "Pct": 0.47271538793757512, "PctCat": ">40%" }, "geometry": { "type": "Point", "coordinates": [ -73.993391, 40.752287 ] } },
{ "type": "Feature", "properties": { "CplxID": 628.0, "Borough": "M", "CplxName": "Fulton St", "Routes": "J Z A C 2 3 4 5", "CplxLat": 40.709938, "CplxLong": -74.007983, "E202104": 18766.444444444445, "E202109": 31128.555555555555, "Pct": 0.65873485772478058, "PctCat": ">40%" }, "geometry": { "type": "Point", "coordinates": [ -74.007983, 40.709938 ] } },
{ "type": "Feature", "properties": { "CplxID": 276.0, "Borough": "M", "CplxName": "5 Av\/53 St", "Routes": "E M", "CplxLat": 40.760167, "CplxLong": -73.975224, "E202104": 4717.666666666667, "E202109": 7482.5555555555557, "Pct": 0.58607126875338555, "PctCat": ">40%" }, "geometry": { "type": "Point", "coordinates": [ -73.975224, 40.760167 ] } },
{ "type": "Feature", "properties": { "CplxID": 612.0, "Borough": "M", "CplxName": "Lexington Av \/ 51 St", "Routes": "E M 6", "CplxLat": 40.758353, "CplxLong": -73.970991, "E202104": 12969.777777777777, "E202109": 19767.444444444445, "Pct": 0.52411589335891995, "PctCat": ">40%" }, "geometry": { "type": "Point", "coordinates": [ -73.970991, 40.758353 ] } },
{ "type": "Feature", "properties": { "CplxID": 616.0, "Borough": "Q", "CplxName": "Jackson Hts-Roosevelt Av \/ 74 St", "Routes": "E F M R 7", "CplxLat": 40.746655, "CplxLong": -73.891361, "E202104": 22725.777777777777, "E202109": 28691.555555555555, "Pct": 0.26251148964465215, "PctCat": "21%~40%" }, "geometry": { "type": "Point", "coordinates": [ -73.891361, 40.746655 ] } },
{ "type": "Feature", "properties": { "CplxID": 254.0, "Borough": "Q", "CplxName": "Jamaica - 179 St", "Routes": "F", "CplxLat": 40.712646, "CplxLong": -73.783817, "E202104": 8725.8888888888887, "E202109": 11058.222222222223, "Pct": 0.26728891039435659, "PctCat": "21%~40%" }, "geometry": { "type": "Point", "coordinates": [ -73.783817, 40.712646 ] } },
{ "type": "Feature", "properties": { "CplxID": 225.0, "Borough": "M", "CplxName": "47-50 Sts - Rockefeller Ctr", "Routes": "B D F M", "CplxLat": 40.758663, "CplxLong": -73.981329, "E202104": 13458.888888888889, "E202109": 18021.333333333332, "Pct": 0.33899116651531408, "PctCat": "21%~40%" }, "geometry": { "type": "Point", "coordinates": [ -73.981329, 40.758663 ] } },
{ "type": "Feature", "properties": { "CplxID": 609.0, "Borough": "M", "CplxName": "42 St - Bryant Pk \/ 5 Av", "Routes": "B D F M 7", "CplxLat": 40.754198, "CplxLong": -73.984573, "E202104": 11956.222222222223, "E202109": 17565.888888888887, "Pct": 0.46918387450513888, "PctCat": ">40%" }, "geometry": { "type": "Point", "coordinates": [ -73.984573, 40.754198 ] } },
{ "type": "Feature", "properties": { "CplxID": 607.0, "Borough": "M", "CplxName": "34 St - Herald Sq", "Routes": "N Q R W B D F M", "CplxLat": 40.749533, "CplxLong": -73.987899, "E202104": 30724.777777777781, "E202109": 40510.777777777781, "Pct": 0.31850515147022124, "PctCat": "21%~40%" }, "geometry": { "type": "Point", "coordinates": [ -73.987899, 40.749533 ] } },
{ "type": "Feature", "properties": { "CplxID": 279.0, "Borough": "Q", "CplxName": "Sutphin Blvd - Archer Av - JFK Airport", "Routes": "E J Z", "CplxLat": 40.700486, "CplxLong": -73.807969, "E202104": 9505.8888888888887, "E202109": 12485.888888888889, "Pct": 0.31348988346405154, "PctCat": "21%~40%" }, "geometry": { "type": "Point", "coordinates": [ -73.807969, 40.700486 ] } },
{ "type": "Feature", "properties": { "CplxID": 278.0, "Borough": "Q", "CplxName": "Jamaica Center - Parsons\/Archer", "Routes": "E J Z", "CplxLat": 40.702147, "CplxLong": -73.801109, "E202104": 14343.555555555555, "E202109": 17035.444444444445, "Pct": 0.18767235769838578, "PctCat": "<=20%" }, "geometry": { "type": "Point", "coordinates": [ -73.801109, 40.702147 ] } },
{ "type": "Feature", "properties": { "CplxID": 333.0, "Borough": "M", "CplxName": "Wall St", "Routes": "2 3", "CplxLat": 40.706821, "CplxLong": -74.0091, "E202104": 3904.3333333333335, "E202109": 6243.5555555555557, "Pct": 0.59913486439568564, "PctCat": ">40%" }, "geometry": { "type": "Point", "coordinates": [ -74.0091, 40.706821 ] } },
{ "type": "Feature", "properties": { "CplxID": 624.0, "Borough": "M", "CplxName": "Chambers St \/ WTC \/ Park Place \/ Cortlandt St", "Routes": "A C E 2 3 R W", "CplxLat": 40.712582, "CplxLong": -74.009781, "E202104": 11859.444444444445, "E202109": 21734.111111111109, "Pct": 0.83264158898205809, "PctCat": ">40%" }, "geometry": { "type": "Point", "coordinates": [ -74.009781, 40.712582 ] } },
{ "type": "Feature", "properties": { "CplxID": 327.0, "Borough": "M", "CplxName": "Chambers St", "Routes": "1 2 3", "CplxLat": 40.715478, "CplxLong": -74.009266, "E202104": 3757.6666666666665, "E202109": 7585.1111111111113, "Pct": 1.0185694432123955, "PctCat": ">40%" }, "geometry": { "type": "Point", "coordinates": [ -74.009266, 40.715478 ] } },
{ "type": "Feature", "properties": { "CplxID": 318.0, "Borough": "M", "CplxName": "34 St - Penn Station", "Routes": "1 2 3", "CplxLat": 40.750373, "CplxLong": -73.991057, "E202104": 18015.888888888891, "E202109": 26954.555555555555, "Pct": 0.49615462893865275, "PctCat": ">40%" }, "geometry": { "type": "Point", "coordinates": [ -73.991057, 40.750373 ] } },
{ "type": "Feature", "properties": { "CplxID": 306.0, "Borough": "M", "CplxName": "125 St", "Routes": "1", "CplxLat": 40.815581, "CplxLong": -73.958372, "E202104": 2573.8888888888887, "E202109": 3740.4444444444443, "Pct": 0.45322685085257941, "PctCat": ">40%" }, "geometry": { "type": "Point", "coordinates": [ -73.958372, 40.815581 ] } },
{ "type": "Feature", "properties": { "CplxID": 605.0, "Borough": "M", "CplxName": "168 St - Washington Hts", "Routes": "A C 1", "CplxLat": 40.840719, "CplxLong": -73.939561, "E202104": 10078.888888888889, "E202109": 12223.111111111111, "Pct": 0.21274390916106278, "PctCat": "21%~40%" }, "geometry": { "type": "Point", "coordinates": [ -73.939561, 40.840719 ] } },
{ "type": "Feature", "properties": { "CplxID": 299.0, "Borough": "M", "CplxName": "Dyckman St", "Routes": "1", "CplxLat": 40.860531, "CplxLong": -73.925536, "E202104": 2944.7777777777778, "E202109": 3762.4444444444443, "Pct": 0.27766667924385913, "PctCat": "21%~40%" }, "geometry": { "type": "Point", "coordinates": [ -73.925536, 40.860531 ] } },
{ "type": "Feature", "properties": { "CplxID": 298.0, "Borough": "M", "CplxName": "207 St", "Routes": "1", "CplxLat": 40.864621, "CplxLong": -73.918822, "E202104": 2754.8888888888887, "E202109": 3544.8888888888887, "Pct": 0.28676292651447932, "PctCat": "21%~40%" }, "geometry": { "type": "Point", "coordinates": [ -73.918822, 40.864621 ] } },
{ "type": "Feature", "properties": { "CplxID": 297.0, "Borough": "M", "CplxName": "215 St", "Routes": "1", "CplxLat": 40.869444, "CplxLong": -73.915279, "E202104": 621.33333333333337, "E202109": 1051.3333333333333, "Pct": 0.6920600858369097, "PctCat": ">40%" }, "geometry": { "type": "Point", "coordinates": [ -73.915279, 40.869444 ] } },
{ "type": "Feature", "properties": { "CplxID": 296.0, "Borough": "M", "CplxName": "Marble Hill - 225 St", "Routes": "1", "CplxLat": 40.874561, "CplxLong": -73.909831, "E202104": 2109.2222222222222, "E202109": 2781.0, "Pct": 0.31849549597007853, "PctCat": "21%~40%" }, "geometry": { "type": "Point", "coordinates": [ -73.909831, 40.874561 ] } },
{ "type": "Feature", "properties": { "CplxID": 295.0, "Borough": "Bx", "CplxName": "231 St", "Routes": "1", "CplxLat": 40.878856, "CplxLong": -73.904834, "E202104": 3873.7777777777778, "E202109": 4882.1111111111113, "Pct": 0.2602971546581001, "PctCat": "21%~40%" }, "geometry": { "type": "Point", "coordinates": [ -73.904834, 40.878856 ] } },
{ "type": "Feature", "properties": { "CplxID": 414.0, "Borough": "M", "CplxName": "Bowling Green", "Routes": "4 5", "CplxLat": 40.704817, "CplxLong": -74.014065, "E202104": 6074.666666666667, "E202109": 9886.4444444444453, "Pct": 0.62748756218905477, "PctCat": ">40%" }, "geometry": { "type": "Point", "coordinates": [ -74.014065, 40.704817 ] } },
{ "type": "Feature", "properties": { "CplxID": 413.0, "Borough": "M", "CplxName": "Wall St", "Routes": "4 5", "CplxLat": 40.707557, "CplxLong": -74.011862, "E202104": 3698.0, "E202109": 5423.0, "Pct": 0.4664683612763656, "PctCat": ">40%" }, "geometry": { "type": "Point", "coordinates": [ -74.011862, 40.707557 ] } },
{ "type": "Feature", "properties": { "CplxID": 622.0, "Borough": "M", "CplxName": "Brooklyn Bridge-City Hall\/Chambers St", "Routes": "J Z 4 5 6", "CplxLat": 40.713159, "CplxLong": -74.003917, "E202104": 6651.666666666667, "E202109": 12210.777777777777, "Pct": 0.83574709763634836, "PctCat": ">40%" }, "geometry": { "type": "Point", "coordinates": [ -74.003917, 40.713159 ] } },
{ "type": "Feature", "properties": { "CplxID": 610.0, "Borough": "M", "CplxName": "Grand Central - 42 St", "Routes": "4 5 6 7 S", "CplxLat": 40.751849, "CplxLong": -73.976945, "E202104": 27920.0, "E202109": 43029.222222222219, "Pct": 0.54116125437758666, "PctCat": ">40%" }, "geometry": { "type": "Point", "coordinates": [ -73.976945, 40.751849 ] } },
{ "type": "Feature", "properties": { "CplxID": 613.0, "Borough": "M", "CplxName": "Lexington Av \/ 59 St", "Routes": "N W R 4 5 6", "CplxLat": 40.762796, "CplxLong": -73.967686, "E202104": 17238.222222222223, "E202109": 21706.777777777777, "Pct": 0.25922368895993392, "PctCat": "21%~40%" }, "geometry": { "type": "Point", "coordinates": [ -73.967686, 40.762796 ] } },
{ "type": "Feature", "properties": { "CplxID": 378.0, "Borough": "Bx", "CplxName": "Woodlawn", "Routes": "4", "CplxLat": 40.886037, "CplxLong": -73.878751, "E202104": 3291.2222222222222, "E202109": 3859.2222222222222, "Pct": 0.17258026400189055, "PctCat": "<=20%" }, "geometry": { "type": "Point", "coordinates": [ -73.878751, 40.886037 ] } },
{ "type": "Feature", "properties": { "CplxID": 434.0, "Borough": "Bx", "CplxName": "3 Av - 149 St", "Routes": "2 5", "CplxLat": 40.816109, "CplxLong": -73.917757, "E202104": 9552.7777777777774, "E202109": 10410.333333333334, "Pct": 0.089770282058738118, "PctCat": "<=20%" }, "geometry": { "type": "Point", "coordinates": [ -73.917757, 40.816109 ] } },
{ "type": "Feature", "properties": { "CplxID": 447.0, "Borough": "Q", "CplxName": "Flushing - Main St", "Routes": "7", "CplxLat": 40.7596, "CplxLong": -73.83003, "E202104": 22852.777777777777, "E202109": 30427.555555555555, "Pct": 0.33145982739759328, "PctCat": "21%~40%" }, "geometry": { "type": "Point", "coordinates": [ -73.83003, 40.7596 ] } },
{ "type": "Feature", "properties": { "CplxID": 337.0, "Borough": "Bk", "CplxName": "Nevins St", "Routes": "2 3 4 5", "CplxLat": 40.688246, "CplxLong": -73.980492, "E202104": 3254.8888888888887, "E202109": 4388.4444444444443, "Pct": 0.34826244282105556, "PctCat": "21%~40%" }, "geometry": { "type": "Point", "coordinates": [ -73.980492, 40.688246 ] } },
{ "type": "Feature", "properties": { "CplxID": 617.0, "Borough": "Bk", "CplxName": "Atlantic Av - Barclays Ctr", "Routes": "D N R B Q 2 3 4 5", "CplxLat": 40.684063, "CplxLong": -73.977417, "E202104": 14102.888888888889, "E202109": 20126.666666666668, "Pct": 0.42713076910955999, "PctCat": ">40%" }, "geometry": { "type": "Point", "coordinates": [ -73.977417, 40.684063 ] } },
{ "type": "Feature", "properties": { "CplxID": 339.0, "Borough": "Bk", "CplxName": "Bergen St", "Routes": "2 3", "CplxLat": 40.680829, "CplxLong": -73.975098, "E202104": 1095.2222222222222, "E202109": 1606.1111111111111, "Pct": 0.46647052855838494, "PctCat": ">40%" }, "geometry": { "type": "Point", "coordinates": [ -73.975098, 40.680829 ] } },
{ "type": "Feature", "properties": { "CplxID": 340.0, "Borough": "Bk", "CplxName": "Grand Army Plaza", "Routes": "2 3", "CplxLat": 40.675235, "CplxLong": -73.971046, "E202104": 2216.3333333333335, "E202109": 3163.1111111111113, "Pct": 0.42718203238582242, "PctCat": ">40%" }, "geometry": { "type": "Point", "coordinates": [ -73.971046, 40.675235 ] } },
{ "type": "Feature", "properties": { "CplxID": 341.0, "Borough": "Bk", "CplxName": "Eastern Pkwy - Brooklyn Museum", "Routes": "2 3", "CplxLat": 40.671987, "CplxLong": -73.964375, "E202104": 1420.6666666666667, "E202109": 1962.8888888888889, "Pct": 0.38166744877209441, "PctCat": "21%~40%" }, "geometry": { "type": "Point", "coordinates": [ -73.964375, 40.671987 ] } },
{ "type": "Feature", "properties": { "CplxID": 343.0, "Borough": "Bk", "CplxName": "Nostrand Av", "Routes": "3", "CplxLat": 40.669847, "CplxLong": -73.950466, "E202104": 1478.5555555555557, "E202109": 1920.0, "Pct": 0.29856466521379715, "PctCat": "21%~40%" }, "geometry": { "type": "Point", "coordinates": [ -73.950466, 40.669847 ] } },
{ "type": "Feature", "properties": { "CplxID": 345.0, "Borough": "Bk", "CplxName": "Crown Hts - Utica Av", "Routes": "3 4", "CplxLat": 40.668897, "CplxLong": -73.932942, "E202104": 10956.111111111111, "E202109": 12792.888888888889, "Pct": 0.1676486993560164, "PctCat": "<=20%" }, "geometry": { "type": "Point", "coordinates": [ -73.932942, 40.668897 ] } },
{ "type": "Feature", "properties": { "CplxID": 346.0, "Borough": "Bk", "CplxName": "Sutter Av - Rutland Rd", "Routes": "3", "CplxLat": 40.664717, "CplxLong": -73.92261, "E202104": 3000.8888888888887, "E202109": 3528.1111111111113, "Pct": 0.17568868483412337, "PctCat": "<=20%" }, "geometry": { "type": "Point", "coordinates": [ -73.92261, 40.664717 ] } },
{ "type": "Feature", "properties": { "CplxID": 347.0, "Borough": "Bk", "CplxName": "Saratoga Av", "Routes": "3", "CplxLat": 40.661453, "CplxLong": -73.916327, "E202104": 2419.6666666666665, "E202109": 2877.6666666666665, "Pct": 0.18928227028516326, "PctCat": "<=20%" }, "geometry": { "type": "Point", "coordinates": [ -73.916327, 40.661453 ] } },
{ "type": "Feature", "properties": { "CplxID": 348.0, "Borough": "Bk", "CplxName": "Rockaway Av", "Routes": "3", "CplxLat": 40.662549, "CplxLong": -73.908946, "E202104": 2212.5555555555557, "E202109": 2574.7777777777778, "Pct": 0.16371214784311752, "PctCat": "<=20%" }, "geometry": { "type": "Point", "coordinates": [ -73.908946, 40.662549 ] } },
{ "type": "Feature", "properties": { "CplxID": 349.0, "Borough": "Bk", "CplxName": "Junius St", "Routes": "3", "CplxLat": 40.663515, "CplxLong": -73.902447, "E202104": 1003.4444444444445, "E202109": 1218.7777777777778, "Pct": 0.21459417561731817, "PctCat": "21%~40%" }, "geometry": { "type": "Point", "coordinates": [ -73.902447, 40.663515 ] } },
{ "type": "Feature", "properties": { "CplxID": 350.0, "Borough": "Bk", "CplxName": "Pennsylvania Av", "Routes": "3", "CplxLat": 40.664635, "CplxLong": -73.894895, "E202104": 2093.2222222222222, "E202109": 2498.4444444444443, "Pct": 0.19358777005148892, "PctCat": "<=20%" }, "geometry": { "type": "Point", "coordinates": [ -73.894895, 40.664635 ] } },
{ "type": "Feature", "properties": { "CplxID": 351.0, "Borough": "Bk", "CplxName": "Van Siclen Av", "Routes": "3", "CplxLat": 40.665449, "CplxLong": -73.889395, "E202104": 1161.2222222222222, "E202109": 1413.4444444444443, "Pct": 0.21720409530188495, "PctCat": "21%~40%" }, "geometry": { "type": "Point", "coordinates": [ -73.889395, 40.665449 ] } },
{ "type": "Feature", "properties": { "CplxID": 352.0, "Borough": "Bk", "CplxName": "New Lots Av", "Routes": "3", "CplxLat": 40.666235, "CplxLong": -73.884079, "E202104": 2606.3333333333335, "E202109": 2773.0, "Pct": 0.063946796265507033, "PctCat": "<=20%" }, "geometry": { "type": "Point", "coordinates": [ -73.884079, 40.666235 ] } },
{ "type": "Feature", "properties": { "CplxID": 501.0, "Borough": "S", "CplxName": "St George", "Routes": "SIR", "CplxLat": 40.643748, "CplxLong": -74.073643, "E202104": 3472.6666666666665, "E202109": 5347.1111111111113, "Pct": 0.53977090932360672, "PctCat": ">40%" }, "geometry": { "type": "Point", "coordinates": [ -74.073643, 40.643748 ] } },
{ "type": "Feature", "properties": { "CplxID": 471.0, "Borough": "M", "CplxName": "34 St - 11 Av", "Routes": "7", "CplxLat": 40.755882, "CplxLong": -74.00191, "E202104": 5967.1111111111113, "E202109": 6824.2222222222226, "Pct": 0.14363920750782067, "PctCat": "<=20%" }, "geometry": { "type": "Point", "coordinates": [ -74.00191, 40.755882 ] } },
{ "type": "Feature", "properties": { "CplxID": 8.0, "Borough": "M", "CplxName": "5 Av\/59 St", "Routes": "N W R", "CplxLat": 40.764811, "CplxLong": -73.973347, "E202104": 4483.2222222222226, "E202109": 5898.8888888888887, "Pct": 0.31576990755656875, "PctCat": "21%~40%" }, "geometry": { "type": "Point", "coordinates": [ -73.973347, 40.764811 ] } },
{ "type": "Feature", "properties": { "CplxID": 9.0, "Borough": "M", "CplxName": "57 St - 7 Av", "Routes": "N Q R W", "CplxLat": 40.764664, "CplxLong": -73.980658, "E202104": 7615.666666666667, "E202109": 11589.555555555555, "Pct": 0.52180446739907482, "PctCat": ">40%" }, "geometry": { "type": "Point", "coordinates": [ -73.980658, 40.764664 ] } },
{ "type": "Feature", "properties": { "CplxID": 10.0, "Borough": "M", "CplxName": "49 St", "Routes": "N R W", "CplxLat": 40.759901, "CplxLong": -73.984139, "E202104": 3786.5555555555557, "E202109": 7236.8888888888887, "Pct": 0.91120631473928215, "PctCat": ">40%" }, "geometry": { "type": "Point", "coordinates": [ -73.984139, 40.759901 ] } },
{ "type": "Feature", "properties": { "CplxID": 13.0, "Borough": "M", "CplxName": "28 St", "Routes": "R W", "CplxLat": 40.745494, "CplxLong": -73.988691, "E202104": 2833.5555555555557, "E202109": 3725.7777777777778, "Pct": 0.31487726452827225, "PctCat": "21%~40%" }, "geometry": { "type": "Point", "coordinates": [ -73.988691, 40.745494 ] } },
{ "type": "Feature", "properties": { "CplxID": 14.0, "Borough": "M", "CplxName": "23 St", "Routes": "R W", "CplxLat": 40.741303, "CplxLong": -73.989344, "E202104": 4204.4444444444443, "E202109": 6678.2222222222226, "Pct": 0.58837209302325599, "PctCat": ">40%" }, "geometry": { "type": "Point", "coordinates": [ -73.989344, 40.741303 ] } },
{ "type": "Feature", "properties": { "CplxID": 614.0, "Borough": "M", "CplxName": "59 St - Columbus Circle", "Routes": "A B C D 1", "CplxLat": 40.76811, "CplxLong": -73.981891, "E202104": 18564.777777777777, "E202109": 28062.555555555555, "Pct": 0.5116020181586397, "PctCat": ">40%" }, "geometry": { "type": "Point", "coordinates": [ -73.981891, 40.76811 ] } },
{ "type": "Feature", "properties": { "CplxID": 16.0, "Borough": "M", "CplxName": "8 St - NYU", "Routes": "R W", "CplxLat": 40.730328, "CplxLong": -73.992629, "E202104": 2838.5555555555557, "E202109": 5920.333333333333, "Pct": 1.085685207656476, "PctCat": ">40%" }, "geometry": { "type": "Point", "coordinates": [ -73.992629, 40.730328 ] } },
{ "type": "Feature", "properties": { "CplxID": 17.0, "Borough": "M", "CplxName": "Prince St", "Routes": "R W", "CplxLat": 40.724329, "CplxLong": -73.997702, "E202104": 2519.1111111111113, "E202109": 3946.1111111111113, "Pct": 0.56646965419901196, "PctCat": ">40%" }, "geometry": { "type": "Point", "coordinates": [ -73.997702, 40.724329 ] } },
{ "type": "Feature", "properties": { "CplxID": 20.0, "Borough": "M", "CplxName": "City Hall", "Routes": "R W", "CplxLat": 40.713282, "CplxLong": -74.006978, "E202104": 1322.4444444444443, "E202109": 2382.1111111111113, "Pct": 0.80129390018484314, "PctCat": ">40%" }, "geometry": { "type": "Point", "coordinates": [ -74.006978, 40.713282 ] } },
{ "type": "Feature", "properties": { "CplxID": 636.0, "Borough": "Bk", "CplxName": "Jay St - MetroTech", "Routes": "R A C F", "CplxLat": 40.692338, "CplxLong": -73.987342, "E202104": 10038.666666666666, "E202109": 16400.888888888891, "Pct": 0.63377163855315033, "PctCat": ">40%" }, "geometry": { "type": "Point", "coordinates": [ -73.987342, 40.692338 ] } },
{ "type": "Feature", "properties": { "CplxID": 6.0, "Borough": "Q", "CplxName": "39 Av", "Routes": "N W", "CplxLat": 40.752882, "CplxLong": -73.932755, "E202104": 927.55555555555554, "E202109": 1253.2222222222222, "Pct": 0.3511020603737422, "PctCat": "21%~40%" }, "geometry": { "type": "Point", "coordinates": [ -73.932755, 40.752882 ] } },
{ "type": "Feature", "properties": { "CplxID": 5.0, "Borough": "Q", "CplxName": "36 Av", "Routes": "N W", "CplxLat": 40.756804, "CplxLong": -73.929575, "E202104": 2269.4444444444443, "E202109": 3100.3333333333335, "Pct": 0.3661199510403918, "PctCat": "21%~40%" }, "geometry": { "type": "Point", "coordinates": [ -73.929575, 40.756804 ] } },
{ "type": "Feature", "properties": { "CplxID": 4.0, "Borough": "Q", "CplxName": "Broadway", "Routes": "N W", "CplxLat": 40.76182, "CplxLong": -73.925508, "E202104": 3860.0, "E202109": 5073.2222222222226, "Pct": 0.3143062751871043, "PctCat": "21%~40%" }, "geometry": { "type": "Point", "coordinates": [ -73.925508, 40.76182 ] } },
{ "type": "Feature", "properties": { "CplxID": 3.0, "Borough": "Q", "CplxName": "30 Av", "Routes": "N W", "CplxLat": 40.766779, "CplxLong": -73.921479, "E202104": 4674.1111111111113, "E202109": 5817.7777777777774, "Pct": 0.24468110395321735, "PctCat": "21%~40%" }, "geometry": { "type": "Point", "coordinates": [ -73.921479, 40.766779 ] } },
{ "type": "Feature", "properties": { "CplxID": 2.0, "Borough": "Q", "CplxName": "Astoria Blvd", "Routes": "N W", "CplxLat": 40.770258, "CplxLong": -73.917843, "E202104": 3467.5555555555557, "E202109": 4498.666666666667, "Pct": 0.29735965137144327, "PctCat": "21%~40%" }, "geometry": { "type": "Point", "coordinates": [ -73.917843, 40.770258 ] } },
{ "type": "Feature", "properties": { "CplxID": 1.0, "Borough": "Q", "CplxName": "Astoria - Ditmars Blvd", "Routes": "N W", "CplxLat": 40.775036, "CplxLong": -73.912034, "E202104": 5439.7777777777774, "E202109": 7133.5555555555557, "Pct": 0.31136892846930031, "PctCat": "21%~40%" }, "geometry": { "type": "Point", "coordinates": [ -73.912034, 40.775036 ] } },
{ "type": "Feature", "properties": { "CplxID": 453.0, "Borough": "Q", "CplxName": "82 St - Jackson Hts", "Routes": "7", "CplxLat": 40.747659, "CplxLong": -73.883697, "E202104": 7877.1111111111113, "E202109": 9825.3333333333339, "Pct": 0.24732699523231871, "PctCat": "21%~40%" }, "geometry": { "type": "Point", "coordinates": [ -73.883697, 40.747659 ] } },
{ "type": "Feature", "properties": { "CplxID": 451.0, "Borough": "Q", "CplxName": "Junction Blvd", "Routes": "7", "CplxLat": 40.749145, "CplxLong": -73.869527, "E202104": 12243.333333333334, "E202109": 9224.0, "Pct": -0.24661040021780564, "PctCat": "<=20%" }, "geometry": { "type": "Point", "coordinates": [ -73.869527, 40.749145 ] } },
{ "type": "Feature", "properties": { "CplxID": 44.0, "Borough": "Bk", "CplxName": "Church Av", "Routes": "B Q", "CplxLat": 40.650527, "CplxLong": -73.962982, "E202104": 6715.333333333333, "E202109": 8048.0, "Pct": 0.19845130547006856, "PctCat": "<=20%" }, "geometry": { "type": "Point", "coordinates": [ -73.962982, 40.650527 ] } },
{ "type": "Feature", "properties": { "CplxID": 26.0, "Borough": "Bk", "CplxName": "DeKalb Av", "Routes": "B Q R", "CplxLat": 40.690635, "CplxLong": -73.981824, "E202104": 6102.1111111111113, "E202109": 9784.4444444444453, "Pct": 0.60345235710774059, "PctCat": ">40%" }, "geometry": { "type": "Point", "coordinates": [ -73.981824, 40.690635 ] } },
{ "type": "Feature", "properties": { "CplxID": 108.0, "Borough": "Q", "CplxName": "Middle Village - Metropolitan Av", "Routes": "M", "CplxLat": 40.711396, "CplxLong": -73.889601, "E202104": 1800.0, "E202109": 2378.6666666666665, "Pct": 0.32148148148148142, "PctCat": "21%~40%" }, "geometry": { "type": "Point", "coordinates": [ -73.889601, 40.711396 ] } },
{ "type": "Feature", "properties": { "CplxID": 151.0, "Borough": "M", "CplxName": "145 St", "Routes": "A B C D", "CplxLat": 40.824783, "CplxLong": -73.944216, "E202104": 8271.2222222222226, "E202109": 10351.444444444445, "Pct": 0.25150118886097717, "PctCat": "21%~40%" }, "geometry": { "type": "Point", "coordinates": [ -73.944216, 40.824783 ] } },
{ "type": "Feature", "properties": { "CplxID": 153.0, "Borough": "M", "CplxName": "125 St", "Routes": "A B C D", "CplxLat": 40.811109, "CplxLong": -73.952343, "E202104": 10652.111111111111, "E202109": 12827.0, "Pct": 0.20417444637995597, "PctCat": "21%~40%" }, "geometry": { "type": "Point", "coordinates": [ -73.952343, 40.811109 ] } },
{ "type": "Feature", "properties": { "CplxID": 621.0, "Borough": "Bk", "CplxName": "Broadway Junction", "Routes": "J Z L A C", "CplxLat": 40.678848, "CplxLong": -73.904139, "E202104": 3825.2222222222222, "E202109": 4047.4444444444443, "Pct": 0.058093937897580376, "PctCat": "<=20%" }, "geometry": { "type": "Point", "coordinates": [ -73.904139, 40.678848 ] } },
{ "type": "Feature", "properties": { "CplxID": 218.0, "Borough": "Bx", "CplxName": "167 St", "Routes": "B D", "CplxLat": 40.833771, "CplxLong": -73.91844, "E202104": 4098.2222222222226, "E202109": 4495.5555555555557, "Pct": 0.096952608176987226, "PctCat": "<=20%" }, "geometry": { "type": "Point", "coordinates": [ -73.91844, 40.833771 ] } },
{ "type": "Feature", "properties": { "CplxID": 601.0, "Borough": "M", "CplxName": "14 St \/ 6 Av", "Routes": "L F M 1 2 3", "CplxLat": 40.738007, "CplxLong": -73.998381, "E202104": 12376.555555555555, "E202109": 17723.444444444445, "Pct": 0.43201752417204586, "PctCat": ">40%" }, "geometry": { "type": "Point", "coordinates": [ -73.998381, 40.738007 ] } },
{ "type": "Feature", "properties": { "CplxID": 365.0, "Borough": "Bx", "CplxName": "Castle Hill Av", "Routes": "6", "CplxLat": 40.834255, "CplxLong": -73.851222, "E202104": 2886.4444444444443, "E202109": 3509.6666666666665, "Pct": 0.2159134652398183, "PctCat": "21%~40%" }, "geometry": { "type": "Point", "coordinates": [ -73.851222, 40.834255 ] } },
{ "type": "Feature", "properties": { "CplxID": 363.0, "Borough": "Bx", "CplxName": "Westchester Sq - E Tremont Av", "Routes": "6", "CplxLat": 40.839892, "CplxLong": -73.842952, "E202104": 2795.1111111111113, "E202109": 3494.8888888888887, "Pct": 0.25035776753060884, "PctCat": "21%~40%" }, "geometry": { "type": "Point", "coordinates": [ -73.842952, 40.839892 ] } },
{ "type": "Feature", "properties": { "CplxID": 620.0, "Borough": "Bk", "CplxName": "Borough Hall \/ Court St", "Routes": "2 3 4 5 R", "CplxLat": 40.692404, "CplxLong": -73.990151, "E202104": 9044.0, "E202109": 13436.0, "Pct": 0.48562582927908005, "PctCat": ">40%" }, "geometry": { "type": "Point", "coordinates": [ -73.990151, 40.692404 ] } },
{ "type": "Feature", "properties": { "CplxID": 356.0, "Borough": "Bk", "CplxName": "Church Av", "Routes": "2 5", "CplxLat": 40.650843, "CplxLong": -73.949575, "E202104": 4179.8888888888887, "E202109": 4856.8888888888887, "Pct": 0.1619660278050985, "PctCat": "<=20%" }, "geometry": { "type": "Point", "coordinates": [ -73.949575, 40.650843 ] } },
{ "type": "Feature", "properties": { "CplxID": 359.0, "Borough": "Bk", "CplxName": "Flatbush Av - Brooklyn College", "Routes": "2 5", "CplxLat": 40.632836, "CplxLong": -73.947642, "E202104": 7329.7777777777774, "E202109": 9274.8888888888887, "Pct": 0.26537108901285478, "PctCat": "21%~40%" }, "geometry": { "type": "Point", "coordinates": [ -73.947642, 40.632836 ] } },
{ "type": "Feature", "properties": { "CplxID": 165.0, "Borough": "M", "CplxName": "23 St", "Routes": "C E", "CplxLat": 40.745906, "CplxLong": -73.998041, "E202104": 6150.2222222222226, "E202109": 9035.3333333333339, "Pct": 0.46910680734210147, "PctCat": ">40%" }, "geometry": { "type": "Point", "coordinates": [ -73.998041, 40.745906 ] } },
{ "type": "Feature", "properties": { "CplxID": 213.0, "Borough": "Bx", "CplxName": "Fordham Rd", "Routes": "B D", "CplxLat": 40.861296, "CplxLong": -73.897749, "E202104": 4953.8888888888887, "E202109": 5589.666666666667, "Pct": 0.12833912750925211, "PctCat": "<=20%" }, "geometry": { "type": "Point", "coordinates": [ -73.897749, 40.861296 ] } },
{ "type": "Feature", "properties": { "CplxID": 277.0, "Borough": "M", "CplxName": "7 Av", "Routes": "B D E", "CplxLat": 40.762862, "CplxLong": -73.981637, "E202104": 2993.3333333333335, "E202109": 5465.4444444444443, "Pct": 0.82587230883444684, "PctCat": ">40%" }, "geometry": { "type": "Point", "coordinates": [ -73.981637, 40.762862 ] } },
{ "type": "Feature", "properties": { "CplxID": 256.0, "Borough": "Q", "CplxName": "Parsons Blvd", "Routes": "F", "CplxLat": 40.707564, "CplxLong": -73.803326, "E202104": 3013.4444444444443, "E202109": 3869.6666666666665, "Pct": 0.28413406585302903, "PctCat": "21%~40%" }, "geometry": { "type": "Point", "coordinates": [ -73.803326, 40.707564 ] } },
{ "type": "Feature", "properties": { "CplxID": 255.0, "Borough": "Q", "CplxName": "169 St", "Routes": "F", "CplxLat": 40.71047, "CplxLong": -73.793604, "E202104": 3156.5555555555557, "E202109": 4350.4444444444443, "Pct": 0.37822521032067297, "PctCat": "21%~40%" }, "geometry": { "type": "Point", "coordinates": [ -73.793604, 40.71047 ] } },
{ "type": "Feature", "properties": { "CplxID": 316.0, "Borough": "M", "CplxName": "50 St", "Routes": "1", "CplxLat": 40.761728, "CplxLong": -73.983849, "E202104": 3572.7777777777778, "E202109": 7741.0, "Pct": 1.1666614834395896, "PctCat": ">40%" }, "geometry": { "type": "Point", "coordinates": [ -73.983849, 40.761728 ] } },
{ "type": "Feature", "properties": { "CplxID": 293.0, "Borough": "Bx", "CplxName": "Van Cortlandt Park - 242 St", "Routes": "1", "CplxLat": 40.889248, "CplxLong": -73.898583, "E202104": 3354.7777777777778, "E202109": 4292.2222222222226, "Pct": 0.27943563077534539, "PctCat": "21%~40%" }, "geometry": { "type": "Point", "coordinates": [ -73.898583, 40.889248 ] } },
{ "type": "Feature", "properties": { "CplxID": 623.0, "Borough": "M", "CplxName": "Canal St", "Routes": "R W N Q J Z 6", "CplxLat": 40.718697, "CplxLong": -74.000977, "E202104": 11537.888888888891, "E202109": 17573.777777777777, "Pct": 0.52313633343284416, "PctCat": ">40%" }, "geometry": { "type": "Point", "coordinates": [ -74.000977, 40.718697 ] } },
{ "type": "Feature", "properties": { "CplxID": 382.0, "Borough": "Bx", "CplxName": "Fordham Rd", "Routes": "4", "CplxLat": 40.862803, "CplxLong": -73.901034, "E202104": 4924.4444444444443, "E202109": 5430.2222222222226, "Pct": 0.10270758122743692, "PctCat": "<=20%" }, "geometry": { "type": "Point", "coordinates": [ -73.901034, 40.862803 ] } },
{ "type": "Feature", "properties": { "CplxID": 368.0, "Borough": "Bx", "CplxName": "Morrison Av- Sound View", "Routes": "6", "CplxLat": 40.829521, "CplxLong": -73.874516, "E202104": 3083.7777777777778, "E202109": 3473.5555555555557, "Pct": 0.12639619514304246, "PctCat": "<=20%" }, "geometry": { "type": "Point", "coordinates": [ -73.874516, 40.829521 ] } },
{ "type": "Feature", "properties": { "CplxID": 461.0, "Borough": "Q", "CplxName": "Queensboro Plaza", "Routes": "7 N W", "CplxLat": 40.750582, "CplxLong": -73.940202, "E202104": 4376.7777777777774, "E202109": 6946.0, "Pct": 0.58701226168414122, "PctCat": ">40%" }, "geometry": { "type": "Point", "coordinates": [ -73.940202, 40.750582 ] } },
{ "type": "Feature", "properties": { "CplxID": 452.0, "Borough": "Q", "CplxName": "90 St - Elmhurst Av", "Routes": "7", "CplxLat": 40.748408, "CplxLong": -73.876613, "E202104": 8641.2222222222226, "E202109": 9689.3333333333339, "Pct": 0.12129199830270926, "PctCat": "<=20%" }, "geometry": { "type": "Point", "coordinates": [ -73.876613, 40.748408 ] } },
{ "type": "Feature", "properties": { "CplxID": 626.0, "Borough": "Bk", "CplxName": "Franklin Av \/ Botanic Garden", "Routes": "S 2 3 4 5", "CplxLat": 40.670499, "CplxLong": -73.958759, "E202104": 4840.2222222222217, "E202109": 6954.4444444444443, "Pct": 0.43680271796519915, "PctCat": ">40%" }, "geometry": { "type": "Point", "coordinates": [ -73.958759, 40.670499 ] } },
{ "type": "Feature", "properties": { "CplxID": 344.0, "Borough": "Bk", "CplxName": "Kingston Av", "Routes": "3", "CplxLat": 40.669399, "CplxLong": -73.942161, "E202104": 1849.1111111111111, "E202109": 2072.7777777777778, "Pct": 0.12095901934863602, "PctCat": "<=20%" }, "geometry": { "type": "Point", "coordinates": [ -73.942161, 40.669399 ] } },
{ "type": "Feature", "properties": { "CplxID": 107.0, "Borough": "M", "CplxName": "Broad St", "Routes": "J Z", "CplxLat": 40.706476, "CplxLong": -74.011056, "E202104": 1609.2222222222222, "E202109": 2493.8888888888887, "Pct": 0.54974798039080297, "PctCat": ">40%" }, "geometry": { "type": "Point", "coordinates": [ -74.011056, 40.706476 ] } },
{ "type": "Feature", "properties": { "CplxID": 147.0, "Borough": "M", "CplxName": "175 St", "Routes": "A", "CplxLat": 40.847391, "CplxLong": -73.939704, "E202104": 4830.7777777777774, "E202109": 5973.0, "Pct": 0.2364468569588519, "PctCat": "21%~40%" }, "geometry": { "type": "Point", "coordinates": [ -73.939704, 40.847391 ] } },
{ "type": "Feature", "properties": { "CplxID": 257.0, "Borough": "Q", "CplxName": "Sutphin Blvd", "Routes": "F", "CplxLat": 40.70546, "CplxLong": -73.810708, "E202104": 1909.2222222222222, "E202109": 2353.2222222222222, "Pct": 0.23255543269510565, "PctCat": "21%~40%" }, "geometry": { "type": "Point", "coordinates": [ -73.810708, 40.70546 ] } },
{ "type": "Feature", "properties": { "CplxID": 236.0, "Borough": "Bk", "CplxName": "Bergen St", "Routes": "F G", "CplxLat": 40.686145, "CplxLong": -73.990862, "E202104": 3401.3333333333335, "E202109": 4946.0, "Pct": 0.45413563308506461, "PctCat": ">40%" }, "geometry": { "type": "Point", "coordinates": [ -73.990862, 40.686145 ] } },
{ "type": "Feature", "properties": { "CplxID": 250.0, "Borough": "Bk", "CplxName": "Kings Hwy", "Routes": "F", "CplxLat": 40.603217, "CplxLong": -73.972361, "E202104": 1652.7777777777778, "E202109": 1755.7777777777778, "Pct": 0.062319327731092437, "PctCat": "<=20%" }, "geometry": { "type": "Point", "coordinates": [ -73.972361, 40.603217 ] } },
{ "type": "Feature", "properties": { "CplxID": 405.0, "Borough": "M", "CplxName": "23 St", "Routes": "6", "CplxLat": 40.739864, "CplxLong": -73.986599, "E202104": 6189.666666666667, "E202109": 10032.777777777777, "Pct": 0.62089144990755185, "PctCat": ">40%" }, "geometry": { "type": "Point", "coordinates": [ -73.986599, 40.739864 ] } },
{ "type": "Feature", "properties": { "CplxID": 392.0, "Borough": "M", "CplxName": "125 St", "Routes": "4 5 6", "CplxLat": 40.804138, "CplxLong": -73.937594, "E202104": 10028.333333333334, "E202109": 12181.111111111111, "Pct": 0.21466954739349614, "PctCat": "21%~40%" }, "geometry": { "type": "Point", "coordinates": [ -73.937594, 40.804138 ] } },
{ "type": "Feature", "properties": { "CplxID": 379.0, "Borough": "Bx", "CplxName": "Mosholu Pkwy", "Routes": "4", "CplxLat": 40.87975, "CplxLong": -73.884655, "E202104": 4015.7777777777778, "E202109": 4511.666666666667, "Pct": 0.12348514194012512, "PctCat": "<=20%" }, "geometry": { "type": "Point", "coordinates": [ -73.884655, 40.87975 ] } },
{ "type": "Feature", "properties": { "CplxID": 463.0, "Borough": "Q", "CplxName": "Hunters Point Av", "Routes": "7", "CplxLat": 40.742216, "CplxLong": -73.948916, "E202104": 1895.0, "E202109": 2717.8888888888887, "Pct": 0.43424215772500724, "PctCat": ">40%" }, "geometry": { "type": "Point", "coordinates": [ -73.948916, 40.742216 ] } },
{ "type": "Feature", "properties": { "CplxID": 358.0, "Borough": "Bk", "CplxName": "Newkirk Av", "Routes": "2 5", "CplxLat": 40.639967, "CplxLong": -73.948411, "E202104": 3168.4444444444443, "E202109": 3799.1111111111113, "Pct": 0.19904614953008848, "PctCat": "<=20%" }, "geometry": { "type": "Point", "coordinates": [ -73.948411, 40.639967 ] } },
{ "type": "Feature", "properties": { "CplxID": 54.0, "Borough": "Bk", "CplxName": "Sheepshead Bay", "Routes": "B Q", "CplxLat": 40.586896, "CplxLong": -73.954155, "E202104": 5584.4444444444443, "E202109": 6672.8888888888887, "Pct": 0.19490648627138876, "PctCat": "<=20%" }, "geometry": { "type": "Point", "coordinates": [ -73.954155, 40.586896 ] } },
{ "type": "Feature", "properties": { "CplxID": 630.0, "Borough": "Bk", "CplxName": "Myrtle - Wyckoff Avs", "Routes": "M L", "CplxLat": 40.699707, "CplxLong": -73.91181, "E202104": 8072.666666666667, "E202109": 7317.1111111111113, "Pct": -0.093594296253475387, "PctCat": "<=20%" }, "geometry": { "type": "Point", "coordinates": [ -73.91181, 40.699707 ] } },
{ "type": "Feature", "properties": { "CplxID": 167.0, "Borough": "M", "CplxName": "W 4 St", "Routes": "A B C D E F M", "CplxLat": 40.732338, "CplxLong": -74.000495, "E202104": 10235.444444444445, "E202109": 15620.444444444445, "Pct": 0.52611296258100926, "PctCat": ">40%" }, "geometry": { "type": "Point", "coordinates": [ -74.000495, 40.732338 ] } },
{ "type": "Feature", "properties": { "CplxID": 169.0, "Borough": "M", "CplxName": "Canal St", "Routes": "A C E", "CplxLat": 40.720824, "CplxLong": -74.005229, "E202104": 4495.5555555555557, "E202109": 6645.5555555555557, "Pct": 0.47825012357884328, "PctCat": ">40%" }, "geometry": { "type": "Point", "coordinates": [ -74.005229, 40.720824 ] } },
{ "type": "Feature", "properties": { "CplxID": 273.0, "Borough": "Q", "CplxName": "Queens Plaza", "Routes": "E M R", "CplxLat": 40.748973, "CplxLong": -73.937243, "E202104": 3416.4444444444443, "E202109": 6102.666666666667, "Pct": 0.7862625211395865, "PctCat": ">40%" }, "geometry": { "type": "Point", "coordinates": [ -73.937243, 40.748973 ] } },
{ "type": "Feature", "properties": { "CplxID": 261.0, "Borough": "Q", "CplxName": "Forest Hills - 71 Av", "Routes": "E F M R", "CplxLat": 40.721691, "CplxLong": -73.844521, "E202104": 9564.6666666666661, "E202109": 12477.888888888889, "Pct": 0.3045816779349923, "PctCat": "21%~40%" }, "geometry": { "type": "Point", "coordinates": [ -73.844521, 40.721691 ] } },
{ "type": "Feature", "properties": { "CplxID": 625.0, "Borough": "M", "CplxName": "Delancey St \/ Essex St", "Routes": "J M Z F", "CplxLat": 40.71838, "CplxLong": -73.987813, "E202104": 8428.5555555555547, "E202109": 11774.444444444445, "Pct": 0.39697061576387171, "PctCat": "21%~40%" }, "geometry": { "type": "Point", "coordinates": [ -73.987813, 40.71838 ] } },
{ "type": "Feature", "properties": { "CplxID": 404.0, "Borough": "M", "CplxName": "28 St", "Routes": "6", "CplxLat": 40.74307, "CplxLong": -73.984264, "E202104": 5743.2222222222226, "E202109": 7185.1111111111113, "Pct": 0.25105921956315652, "PctCat": "21%~40%" }, "geometry": { "type": "Point", "coordinates": [ -73.984264, 40.74307 ] } },
{ "type": "Feature", "properties": { "CplxID": 396.0, "Borough": "M", "CplxName": "96 St", "Routes": "6", "CplxLat": 40.785672, "CplxLong": -73.95107, "E202104": 7116.666666666667, "E202109": 9004.2222222222226, "Pct": 0.26523028883684624, "PctCat": "21%~40%" }, "geometry": { "type": "Point", "coordinates": [ -73.95107, 40.785672 ] } },
{ "type": "Feature", "properties": { "CplxID": 416.0, "Borough": "Bx", "CplxName": "Wakefield - 241 St", "Routes": "2", "CplxLat": 40.903125, "CplxLong": -73.85062, "E202104": 2436.4444444444443, "E202109": 2732.0, "Pct": 0.12130609266690993, "PctCat": "<=20%" }, "geometry": { "type": "Point", "coordinates": [ -73.85062, 40.903125 ] } },
{ "type": "Feature", "properties": { "CplxID": 371.0, "Borough": "Bx", "CplxName": "Hunts Point Av", "Routes": "6", "CplxLat": 40.820948, "CplxLong": -73.890549, "E202104": 5227.5555555555557, "E202109": 5403.666666666667, "Pct": 0.033688998469648054, "PctCat": "<=20%" }, "geometry": { "type": "Point", "coordinates": [ -73.890549, 40.820948 ] } },
{ "type": "Feature", "properties": { "CplxID": 456.0, "Borough": "Q", "CplxName": "Woodside - 61 St", "Routes": "7", "CplxLat": 40.74563, "CplxLong": -73.902984, "E202104": 7387.2222222222226, "E202109": 9730.5555555555547, "Pct": 0.31721440926524763, "PctCat": "21%~40%" }, "geometry": { "type": "Point", "coordinates": [ -73.902984, 40.74563 ] } },
{ "type": "Feature", "properties": { "CplxID": 43.0, "Borough": "Bk", "CplxName": "Parkside Av", "Routes": "B Q", "CplxLat": 40.655292, "CplxLong": -73.961495, "E202104": 2512.7777777777778, "E202109": 2928.5555555555557, "Pct": 0.16546539907141281, "PctCat": "<=20%" }, "geometry": { "type": "Point", "coordinates": [ -73.961495, 40.655292 ] } },
{ "type": "Feature", "properties": { "CplxID": 47.0, "Borough": "Bk", "CplxName": "Newkirk Plaza", "Routes": "B Q", "CplxLat": 40.635082, "CplxLong": -73.962793, "E202104": 4080.2222222222222, "E202109": 4958.333333333333, "Pct": 0.2152115897826915, "PctCat": "21%~40%" }, "geometry": { "type": "Point", "coordinates": [ -73.962793, 40.635082 ] } },
{ "type": "Feature", "properties": { "CplxID": 52.0, "Borough": "Bk", "CplxName": "Avenue U", "Routes": "B Q", "CplxLat": 40.5993, "CplxLong": -73.955929, "E202104": 3196.5555555555557, "E202109": 3689.5555555555557, "Pct": 0.15422850985435713, "PctCat": "<=20%" }, "geometry": { "type": "Point", "coordinates": [ -73.955929, 40.5993 ] } },
{ "type": "Feature", "properties": { "CplxID": 58.0, "Borough": "Bk", "CplxName": "Coney Island - Stillwell Av", "Routes": "D F N Q", "CplxLat": 40.577422, "CplxLong": -73.981233, "E202104": 6050.4444444444443, "E202109": 6822.4444444444443, "Pct": 0.12759393249348075, "PctCat": "<=20%" }, "geometry": { "type": "Point", "coordinates": [ -73.981233, 40.577422 ] } },
{ "type": "Feature", "properties": { "CplxID": 138.0, "Borough": "Bk", "CplxName": "Canarsie - Rockaway Pkwy", "Routes": "L", "CplxLat": 40.646654, "CplxLong": -73.90185, "E202104": 3225.0, "E202109": 3744.5555555555557, "Pct": 0.16110249784668393, "PctCat": "<=20%" }, "geometry": { "type": "Point", "coordinates": [ -73.90185, 40.646654 ] } },
{ "type": "Feature", "properties": { "CplxID": 181.0, "Borough": "Bk", "CplxName": "Utica Av", "Routes": "A C", "CplxLat": 40.679364, "CplxLong": -73.930729, "E202104": 5684.666666666667, "E202109": 6873.5555555555557, "Pct": 0.20913959579375313, "PctCat": "21%~40%" }, "geometry": { "type": "Point", "coordinates": [ -73.930729, 40.679364 ] } },
{ "type": "Feature", "properties": { "CplxID": 215.0, "Borough": "Bx", "CplxName": "Tremont Av", "Routes": "B D", "CplxLat": 40.85041, "CplxLong": -73.905227, "E202104": 4212.4444444444443, "E202109": 4657.5555555555557, "Pct": 0.10566575226841111, "PctCat": "<=20%" }, "geometry": { "type": "Point", "coordinates": [ -73.905227, 40.85041 ] } },
{ "type": "Feature", "properties": { "CplxID": 212.0, "Borough": "Bx", "CplxName": "Kingsbridge Rd", "Routes": "B D", "CplxLat": 40.866978, "CplxLong": -73.893509, "E202104": 3181.3333333333335, "E202109": 3587.7777777777778, "Pct": 0.12775915060072643, "PctCat": "<=20%" }, "geometry": { "type": "Point", "coordinates": [ -73.893509, 40.866978 ] } },
{ "type": "Feature", "properties": { "CplxID": 211.0, "Borough": "Bx", "CplxName": "Bedford Park Blvd", "Routes": "B D", "CplxLat": 40.873244, "CplxLong": -73.887138, "E202104": 2989.6666666666665, "E202109": 3697.4444444444443, "Pct": 0.23674136841714055, "PctCat": "21%~40%" }, "geometry": { "type": "Point", "coordinates": [ -73.887138, 40.873244 ] } },
{ "type": "Feature", "properties": { "CplxID": 210.0, "Borough": "Bx", "CplxName": "Norwood - 205 St", "Routes": "D", "CplxLat": 40.874811, "CplxLong": -73.878855, "E202104": 3838.8888888888887, "E202109": 4467.0, "Pct": 0.16361794500723595, "PctCat": "<=20%" }, "geometry": { "type": "Point", "coordinates": [ -73.878855, 40.874811 ] } },
{ "type": "Feature", "properties": { "CplxID": 259.0, "Borough": "Q", "CplxName": "Kew Gardens - Union Tpke", "Routes": "E F", "CplxLat": 40.714441, "CplxLong": -73.831008, "E202104": 9601.1111111111113, "E202109": 11970.555555555555, "Pct": 0.24678856613817834, "PctCat": "21%~40%" }, "geometry": { "type": "Point", "coordinates": [ -73.831008, 40.714441 ] } },
{ "type": "Feature", "properties": { "CplxID": 307.0, "Borough": "M", "CplxName": "116 St - Columbia University", "Routes": "1", "CplxLat": 40.807722, "CplxLong": -73.96411, "E202104": 2791.4444444444443, "E202109": 7109.5555555555557, "Pct": 1.5469092067030212, "PctCat": ">40%" }, "geometry": { "type": "Point", "coordinates": [ -73.96411, 40.807722 ] } },
{ "type": "Feature", "properties": { "CplxID": 407.0, "Borough": "M", "CplxName": "Astor Pl", "Routes": "6", "CplxLat": 40.730054, "CplxLong": -73.99107, "E202104": 3573.0, "E202109": 5627.4444444444443, "Pct": 0.57499144820723325, "PctCat": ">40%" }, "geometry": { "type": "Point", "coordinates": [ -73.99107, 40.730054 ] } },
{ "type": "Feature", "properties": { "CplxID": 381.0, "Borough": "Bx", "CplxName": "Kingsbridge Rd", "Routes": "4", "CplxLat": 40.86776, "CplxLong": -73.897174, "E202104": 3911.0, "E202109": 4771.8888888888887, "Pct": 0.22011988976959568, "PctCat": "21%~40%" }, "geometry": { "type": "Point", "coordinates": [ -73.897174, 40.86776 ] } },
{ "type": "Feature", "properties": { "CplxID": 369.0, "Borough": "Bx", "CplxName": "Elder Av", "Routes": "6", "CplxLat": 40.828584, "CplxLong": -73.879159, "E202104": 3320.0, "E202109": 3602.4444444444443, "Pct": 0.085073627844712146, "PctCat": "<=20%" }, "geometry": { "type": "Point", "coordinates": [ -73.879159, 40.828584 ] } },
{ "type": "Feature", "properties": { "CplxID": 314.0, "Borough": "M", "CplxName": "66 St - Lincoln Center", "Routes": "1", "CplxLat": 40.77344, "CplxLong": -73.982209, "E202104": 4755.333333333333, "E202109": 8362.2222222222226, "Pct": 0.75849338754147411, "PctCat": ">40%" }, "geometry": { "type": "Point", "coordinates": [ -73.982209, 40.77344 ] } },
{ "type": "Feature", "properties": { "CplxID": 502.0, "Borough": "S", "CplxName": "Tompkinsville", "Routes": "SIR", "CplxLat": 40.636949, "CplxLong": -74.074835, "E202104": 348.77777777777777, "E202109": 450.66666666666669, "Pct": 0.29213125199108003, "PctCat": "21%~40%" }, "geometry": { "type": "Point", "coordinates": [ -74.074835, 40.636949 ] } },
{ "type": "Feature", "properties": { "CplxID": 312.0, "Borough": "M", "CplxName": "79 St", "Routes": "1", "CplxLat": 40.783934, "CplxLong": -73.979917, "E202104": 4868.333333333333, "E202109": 6388.0, "Pct": 0.31215337213283129, "PctCat": "21%~40%" }, "geometry": { "type": "Point", "coordinates": [ -73.979917, 40.783934 ] } },
{ "type": "Feature", "properties": { "CplxID": 311.0, "Borough": "M", "CplxName": "86 St", "Routes": "1", "CplxLat": 40.788644, "CplxLong": -73.976218, "E202104": 6172.0, "E202109": 8203.3333333333339, "Pct": 0.3291207604234177, "PctCat": "21%~40%" }, "geometry": { "type": "Point", "coordinates": [ -73.976218, 40.788644 ] } },
{ "type": "Feature", "properties": { "CplxID": 310.0, "Borough": "M", "CplxName": "96 St", "Routes": "1 2 3", "CplxLat": 40.793919, "CplxLong": -73.972323, "E202104": 12418.666666666666, "E202109": 16018.111111111111, "Pct": 0.28984145730441635, "PctCat": "21%~40%" }, "geometry": { "type": "Point", "coordinates": [ -73.972323, 40.793919 ] } },
{ "type": "Feature", "properties": { "CplxID": 305.0, "Borough": "M", "CplxName": "137 St - City College", "Routes": "1", "CplxLat": 40.822008, "CplxLong": -73.953676, "E202104": 4629.4444444444443, "E202109": 5845.8888888888887, "Pct": 0.26276251050041999, "PctCat": "21%~40%" }, "geometry": { "type": "Point", "coordinates": [ -73.953676, 40.822008 ] } },
{ "type": "Feature", "properties": { "CplxID": 602.0, "Borough": "M", "CplxName": "14 St - Union Sq", "Routes": "N Q R W L 4 5 6", "CplxLat": 40.734836, "CplxLong": -73.990688, "E202104": 25859.333333333332, "E202109": 37894.666666666664, "Pct": 0.46541545283456648, "PctCat": ">40%" }, "geometry": { "type": "Point", "coordinates": [ -73.990688, 40.734836 ] } },
{ "type": "Feature", "properties": { "CplxID": 41.0, "Borough": "Bk", "CplxName": "7 Av", "Routes": "B Q", "CplxLat": 40.67705, "CplxLong": -73.972367, "E202104": 2865.4444444444443, "E202109": 4096.5555555555557, "Pct": 0.42964054441816285, "PctCat": ">40%" }, "geometry": { "type": "Point", "coordinates": [ -73.972367, 40.67705 ] } },
{ "type": "Feature", "properties": { "CplxID": 55.0, "Borough": "Bk", "CplxName": "Brighton Beach", "Routes": "B Q", "CplxLat": 40.577621, "CplxLong": -73.961376, "E202104": 4982.2222222222226, "E202109": 5660.1111111111113, "Pct": 0.13606155218554858, "PctCat": "<=20%" }, "geometry": { "type": "Point", "coordinates": [ -73.961376, 40.577621 ] } },
{ "type": "Feature", "properties": { "CplxID": 143.0, "Borough": "M", "CplxName": "Inwood - 207 St", "Routes": "A", "CplxLat": 40.868072, "CplxLong": -73.919899, "E202104": 3912.7777777777778, "E202109": 4515.333333333333, "Pct": 0.15399687633110881, "PctCat": "<=20%" }, "geometry": { "type": "Point", "coordinates": [ -73.919899, 40.868072 ] } },
{ "type": "Feature", "properties": { "CplxID": 146.0, "Borough": "M", "CplxName": "181 St", "Routes": "A", "CplxLat": 40.851695, "CplxLong": -73.937969, "E202104": 4748.4444444444443, "E202109": 5961.5555555555557, "Pct": 0.25547547734930742, "PctCat": "21%~40%" }, "geometry": { "type": "Point", "coordinates": [ -73.937969, 40.851695 ] } },
{ "type": "Feature", "properties": { "CplxID": 618.0, "Borough": "M", "CplxName": "14 St \/ 8 Av", "Routes": "L A C E", "CplxLat": 40.740388, "CplxLong": -74.002104, "E202104": 10535.222222222223, "E202109": 15724.222222222223, "Pct": 0.4925382579073373, "PctCat": ">40%" }, "geometry": { "type": "Point", "coordinates": [ -74.002104, 40.740388 ] } },
{ "type": "Feature", "properties": { "CplxID": 403.0, "Borough": "M", "CplxName": "33 St", "Routes": "6", "CplxLat": 40.746081, "CplxLong": -73.982076, "E202104": 8241.8888888888887, "E202109": 10217.111111111111, "Pct": 0.23965649729700586, "PctCat": "21%~40%" }, "geometry": { "type": "Point", "coordinates": [ -73.982076, 40.746081 ] } },
{ "type": "Feature", "properties": { "CplxID": 399.0, "Borough": "M", "CplxName": "68 St - Hunter College", "Routes": "6", "CplxLat": 40.768141, "CplxLong": -73.96387, "E202104": 7270.4444444444443, "E202109": 11490.0, "Pct": 0.58037106091634316, "PctCat": ">40%" }, "geometry": { "type": "Point", "coordinates": [ -73.96387, 40.768141 ] } },
{ "type": "Feature", "properties": { "CplxID": 398.0, "Borough": "M", "CplxName": "77 St", "Routes": "6", "CplxLat": 40.77362, "CplxLong": -73.959874, "E202104": 10431.666666666666, "E202109": 12574.444444444445, "Pct": 0.20541087500665722, "PctCat": "21%~40%" }, "geometry": { "type": "Point", "coordinates": [ -73.959874, 40.77362 ] } },
{ "type": "Feature", "properties": { "CplxID": 397.0, "Borough": "M", "CplxName": "86 St", "Routes": "4 5 6", "CplxLat": 40.779492, "CplxLong": -73.955589, "E202104": 15300.333333333334, "E202109": 19655.666666666668, "Pct": 0.28465610771007172, "PctCat": "21%~40%" }, "geometry": { "type": "Point", "coordinates": [ -73.955589, 40.779492 ] } },
{ "type": "Feature", "properties": { "CplxID": 395.0, "Borough": "M", "CplxName": "103 St", "Routes": "6", "CplxLat": 40.7906, "CplxLong": -73.947478, "E202104": 5636.333333333333, "E202109": 7222.0, "Pct": 0.28132946951327703, "PctCat": "21%~40%" }, "geometry": { "type": "Point", "coordinates": [ -73.947478, 40.7906 ] } },
{ "type": "Feature", "properties": { "CplxID": 394.0, "Borough": "M", "CplxName": "110 St", "Routes": "6", "CplxLat": 40.79502, "CplxLong": -73.94425, "E202104": 4454.1111111111113, "E202109": 5566.0, "Pct": 0.24963205029061786, "PctCat": "21%~40%" }, "geometry": { "type": "Point", "coordinates": [ -73.94425, 40.79502 ] } },
{ "type": "Feature", "properties": { "CplxID": 393.0, "Borough": "M", "CplxName": "116 St", "Routes": "6", "CplxLat": 40.798629, "CplxLong": -73.941617, "E202104": 5985.1111111111113, "E202109": 7230.2222222222226, "Pct": 0.20803475290535778, "PctCat": "21%~40%" }, "geometry": { "type": "Point", "coordinates": [ -73.941617, 40.798629 ] } },
{ "type": "Feature", "properties": { "CplxID": 380.0, "Borough": "Bx", "CplxName": "Bedford Park Blvd - Lehman College", "Routes": "4", "CplxLat": 40.873412, "CplxLong": -73.890064, "E202104": 2031.7777777777778, "E202109": 3126.6666666666665, "Pct": 0.53888220496554728, "PctCat": ">40%" }, "geometry": { "type": "Point", "coordinates": [ -73.890064, 40.873412 ] } },
{ "type": "Feature", "properties": { "CplxID": 46.0, "Borough": "Bk", "CplxName": "Cortelyou Rd", "Routes": "B Q", "CplxLat": 40.640927, "CplxLong": -73.963891, "E202104": 2500.4444444444443, "E202109": 3112.4444444444443, "Pct": 0.2447564877355137, "PctCat": "21%~40%" }, "geometry": { "type": "Point", "coordinates": [ -73.963891, 40.640927 ] } },
{ "type": "Feature", "properties": { "CplxID": 144.0, "Borough": "M", "CplxName": "Dyckman St", "Routes": "A", "CplxLat": 40.865491, "CplxLong": -73.927271, "E202104": 2708.1111111111113, "E202109": 3124.0, "Pct": 0.15357157510359815, "PctCat": "<=20%" }, "geometry": { "type": "Point", "coordinates": [ -73.927271, 40.865491 ] } },
{ "type": "Feature", "properties": { "CplxID": 158.0, "Borough": "M", "CplxName": "86 St", "Routes": "B C", "CplxLat": 40.785868, "CplxLong": -73.968916, "E202104": 3753.7777777777778, "E202109": 5061.7777777777774, "Pct": 0.34844896992659236, "PctCat": "21%~40%" }, "geometry": { "type": "Point", "coordinates": [ -73.968916, 40.785868 ] } },
{ "type": "Feature", "properties": { "CplxID": 159.0, "Borough": "M", "CplxName": "81 St - Museum of Natural History", "Routes": "B C", "CplxLat": 40.781433, "CplxLong": -73.972143, "E202104": 3566.6666666666665, "E202109": 5350.5555555555557, "Pct": 0.50015576323987543, "PctCat": ">40%" }, "geometry": { "type": "Point", "coordinates": [ -73.972143, 40.781433 ] } },
{ "type": "Feature", "properties": { "CplxID": 162.0, "Borough": "M", "CplxName": "50 St", "Routes": "C E", "CplxLat": 40.762456, "CplxLong": -73.985984, "E202104": 4334.0, "E202109": 8120.5555555555557, "Pct": 0.87368609957442445, "PctCat": ">40%" }, "geometry": { "type": "Point", "coordinates": [ -73.985984, 40.762456 ] } },
{ "type": "Feature", "properties": { "CplxID": 323.0, "Borough": "M", "CplxName": "Christopher St - Sheridan Sq", "Routes": "1", "CplxLat": 40.733422, "CplxLong": -74.002906, "E202104": 2314.5555555555557, "E202109": 3947.8888888888887, "Pct": 0.70567903605203763, "PctCat": ">40%" }, "geometry": { "type": "Point", "coordinates": [ -74.002906, 40.733422 ] } },
{ "type": "Feature", "properties": { "CplxID": 320.0, "Borough": "M", "CplxName": "23 St", "Routes": "1", "CplxLat": 40.744081, "CplxLong": -73.995657, "E202104": 3554.1111111111113, "E202109": 5576.4444444444443, "Pct": 0.56901241129208724, "PctCat": ">40%" }, "geometry": { "type": "Point", "coordinates": [ -73.995657, 40.744081 ] } },
{ "type": "Feature", "properties": { "CplxID": 309.0, "Borough": "M", "CplxName": "103 St", "Routes": "1", "CplxLat": 40.799446, "CplxLong": -73.968379, "E202104": 3931.6666666666665, "E202109": 5687.1111111111113, "Pct": 0.44648862512364007, "PctCat": ">40%" }, "geometry": { "type": "Point", "coordinates": [ -73.968379, 40.799446 ] } },
{ "type": "Feature", "properties": { "CplxID": 308.0, "Borough": "M", "CplxName": "Cathedral Pkwy", "Routes": "1", "CplxLat": 40.803967, "CplxLong": -73.966847, "E202104": 3894.0, "E202109": 5520.4444444444443, "Pct": 0.41767962106945156, "PctCat": ">40%" }, "geometry": { "type": "Point", "coordinates": [ -73.966847, 40.803967 ] } },
{ "type": "Feature", "properties": { "CplxID": 303.0, "Borough": "M", "CplxName": "157 St", "Routes": "1", "CplxLat": 40.834041, "CplxLong": -73.94489, "E202104": 4085.2222222222222, "E202109": 5336.4444444444443, "Pct": 0.30628008812250113, "PctCat": "21%~40%" }, "geometry": { "type": "Point", "coordinates": [ -73.94489, 40.834041 ] } },
{ "type": "Feature", "properties": { "CplxID": 619.0, "Borough": "M", "CplxName": "Broadway-Lafayette St \/ Bleecker St", "Routes": "B D F M 6", "CplxLat": 40.725665, "CplxLong": -73.995645, "E202104": 8970.5555555555547, "E202109": 13202.0, "Pct": 0.47170372205363237, "PctCat": ">40%" }, "geometry": { "type": "Point", "coordinates": [ -73.995645, 40.725665 ] } },
{ "type": "Feature", "properties": { "CplxID": 604.0, "Borough": "Bx", "CplxName": "161 St - Yankee Stadium", "Routes": "B D 4", "CplxLat": 40.827905, "CplxLong": -73.925651, "E202104": 9599.0, "E202109": 13209.0, "Pct": 0.37608084175434942, "PctCat": "21%~40%" }, "geometry": { "type": "Point", "coordinates": [ -73.925651, 40.827905 ] } },
{ "type": "Feature", "properties": { "CplxID": 42.0, "Borough": "Bk", "CplxName": "Prospect Park", "Routes": "B Q", "CplxLat": 40.661614, "CplxLong": -73.962246, "E202104": 3827.7777777777778, "E202109": 4720.2222222222226, "Pct": 0.23314949201741664, "PctCat": "21%~40%" }, "geometry": { "type": "Point", "coordinates": [ -73.962246, 40.661614 ] } },
{ "type": "Feature", "properties": { "CplxID": 32.0, "Borough": "Bk", "CplxName": "36 St", "Routes": "D N R", "CplxLat": 40.655144, "CplxLong": -74.003549, "E202104": 5904.2222222222226, "E202109": 7440.1111111111113, "Pct": 0.26013399074108917, "PctCat": "21%~40%" }, "geometry": { "type": "Point", "coordinates": [ -74.003549, 40.655144 ] } },
{ "type": "Feature", "properties": { "CplxID": 179.0, "Borough": "Bk", "CplxName": "Nostrand Av", "Routes": "A C", "CplxLat": 40.680438, "CplxLong": -73.950426, "E202104": 6071.0, "E202109": 7605.7777777777774, "Pct": 0.25280477314738548, "PctCat": "21%~40%" }, "geometry": { "type": "Point", "coordinates": [ -73.950426, 40.680438 ] } },
{ "type": "Feature", "properties": { "CplxID": 180.0, "Borough": "Bk", "CplxName": "Kingston - Throop Avs", "Routes": "C", "CplxLat": 40.679921, "CplxLong": -73.940858, "E202104": 1945.5555555555557, "E202109": 2780.4444444444443, "Pct": 0.42912621359223291, "PctCat": ">40%" }, "geometry": { "type": "Point", "coordinates": [ -73.940858, 40.679921 ] } },
{ "type": "Feature", "properties": { "CplxID": 188.0, "Borough": "Bk", "CplxName": "Euclid Av", "Routes": "A C", "CplxLat": 40.675377, "CplxLong": -73.872106, "E202104": 4328.7777777777774, "E202109": 5143.0, "Pct": 0.18809517698092879, "PctCat": "<=20%" }, "geometry": { "type": "Point", "coordinates": [ -73.872106, 40.675377 ] } },
{ "type": "Feature", "properties": { "CplxID": 264.0, "Borough": "Q", "CplxName": "Woodhaven Blvd", "Routes": "M R", "CplxLat": 40.733106, "CplxLong": -73.869229, "E202104": 8396.3333333333339, "E202109": 10033.888888888889, "Pct": 0.19503222306033047, "PctCat": "<=20%" }, "geometry": { "type": "Point", "coordinates": [ -73.869229, 40.733106 ] } },
{ "type": "Feature", "properties": { "CplxID": 263.0, "Borough": "Q", "CplxName": "63 Dr - Rego Park", "Routes": "M R", "CplxLat": 40.729846, "CplxLong": -73.861604, "E202104": 5953.7777777777774, "E202109": 7304.666666666667, "Pct": 0.22689608838459255, "PctCat": "21%~40%" }, "geometry": { "type": "Point", "coordinates": [ -73.861604, 40.729846 ] } },
{ "type": "Feature", "properties": { "CplxID": 228.0, "Borough": "M", "CplxName": "23 St", "Routes": "F M", "CplxLat": 40.742878, "CplxLong": -73.992821, "E202104": 6989.2222222222226, "E202109": 9441.3333333333339, "Pct": 0.35084177225251578, "PctCat": "21%~40%" }, "geometry": { "type": "Point", "coordinates": [ -73.992821, 40.742878 ] } },
{ "type": "Feature", "properties": { "CplxID": 243.0, "Borough": "Bk", "CplxName": "Church Av", "Routes": "F", "CplxLat": 40.644041, "CplxLong": -73.979678, "E202104": 4224.0, "E202109": 4803.1111111111113, "Pct": 0.13710016835016839, "PctCat": "<=20%" }, "geometry": { "type": "Point", "coordinates": [ -73.979678, 40.644041 ] } },
{ "type": "Feature", "properties": { "CplxID": 603.0, "Borough": "Bx", "CplxName": "149 St - Grand Concourse", "Routes": "4 2 5", "CplxLat": 40.81841, "CplxLong": -73.926718, "E202104": 5038.4444444444443, "E202109": 6412.0, "Pct": 0.27261500463105898, "PctCat": "21%~40%" }, "geometry": { "type": "Point", "coordinates": [ -73.926718, 40.81841 ] } },
{ "type": "Feature", "properties": { "CplxID": 439.0, "Borough": "M", "CplxName": "125 St", "Routes": "2 3", "CplxLat": 40.807754, "CplxLong": -73.945495, "E202104": 5056.0, "E202109": 6451.8888888888887, "Pct": 0.27608561884669475, "PctCat": "21%~40%" }, "geometry": { "type": "Point", "coordinates": [ -73.945495, 40.807754 ] } },
{ "type": "Feature", "properties": { "CplxID": 438.0, "Borough": "M", "CplxName": "135 St", "Routes": "2 3", "CplxLat": 40.814229, "CplxLong": -73.94077, "E202104": 5182.8888888888887, "E202109": 6563.333333333333, "Pct": 0.26634652488959393, "PctCat": "21%~40%" }, "geometry": { "type": "Point", "coordinates": [ -73.94077, 40.814229 ] } },
{ "type": "Feature", "properties": { "CplxID": 450.0, "Borough": "Q", "CplxName": "103 St - Corona Plaza", "Routes": "7", "CplxLat": 40.749865, "CplxLong": -73.8627, "E202104": 11027.666666666666, "E202109": 12208.111111111111, "Pct": 0.10704389968664679, "PctCat": "<=20%" }, "geometry": { "type": "Point", "coordinates": [ -73.8627, 40.749865 ] } },
{ "type": "Feature", "properties": { "CplxID": 354.0, "Borough": "Bk", "CplxName": "Sterling St", "Routes": "2 5", "CplxLat": 40.662742, "CplxLong": -73.95085, "E202104": 2231.2222222222222, "E202109": 2749.7777777777778, "Pct": 0.23240874458443309, "PctCat": "21%~40%" }, "geometry": { "type": "Point", "coordinates": [ -73.95085, 40.662742 ] } },
{ "type": "Feature", "properties": { "CplxID": 357.0, "Borough": "Bk", "CplxName": "Beverly Rd", "Routes": "2 5", "CplxLat": 40.645098, "CplxLong": -73.948959, "E202104": 1827.0, "E202109": 2254.7777777777778, "Pct": 0.23414218816517671, "PctCat": "21%~40%" }, "geometry": { "type": "Point", "coordinates": [ -73.948959, 40.645098 ] } },
{ "type": "Feature", "properties": { "CplxID": 51.0, "Borough": "Bk", "CplxName": "Kings Hwy", "Routes": "B Q", "CplxLat": 40.60867, "CplxLong": -73.957734, "E202104": 8712.1111111111113, "E202109": 9759.6666666666661, "Pct": 0.1202412988304913, "PctCat": "<=20%" }, "geometry": { "type": "Point", "coordinates": [ -73.957734, 40.60867 ] } },
{ "type": "Feature", "properties": { "CplxID": 35.0, "Borough": "Bk", "CplxName": "59 St", "Routes": "N R", "CplxLat": 40.641362, "CplxLong": -74.017881, "E202104": 5572.7777777777774, "E202109": 7203.4444444444443, "Pct": 0.29261290000996915, "PctCat": "21%~40%" }, "geometry": { "type": "Point", "coordinates": [ -74.017881, 40.641362 ] } },
{ "type": "Feature", "properties": { "CplxID": 36.0, "Borough": "Bk", "CplxName": "Bay Ridge Av", "Routes": "R", "CplxLat": 40.634967, "CplxLong": -74.023377, "E202104": 3024.2222222222222, "E202109": 4251.666666666667, "Pct": 0.40587111470350518, "PctCat": ">40%" }, "geometry": { "type": "Point", "coordinates": [ -74.023377, 40.634967 ] } },
{ "type": "Feature", "properties": { "CplxID": 37.0, "Borough": "Bk", "CplxName": "77 St", "Routes": "R", "CplxLat": 40.629742, "CplxLong": -74.02551, "E202104": 2078.3333333333335, "E202109": 2722.4444444444443, "Pct": 0.30991713445602764, "PctCat": "21%~40%" }, "geometry": { "type": "Point", "coordinates": [ -74.02551, 40.629742 ] } },
{ "type": "Feature", "properties": { "CplxID": 38.0, "Borough": "Bk", "CplxName": "86 St", "Routes": "R", "CplxLat": 40.622687, "CplxLong": -74.028398, "E202104": 4701.5555555555557, "E202109": 6240.5555555555557, "Pct": 0.32733846953726897, "PctCat": "21%~40%" }, "geometry": { "type": "Point", "coordinates": [ -74.028398, 40.622687 ] } },
{ "type": "Feature", "properties": { "CplxID": 39.0, "Borough": "Bk", "CplxName": "Bay Ridge - 95 St", "Routes": "R", "CplxLat": 40.616622, "CplxLong": -74.030876, "E202104": 2234.3333333333335, "E202109": 2804.0, "Pct": 0.25496046546322532, "PctCat": "21%~40%" }, "geometry": { "type": "Point", "coordinates": [ -74.030876, 40.616622 ] } },
{ "type": "Feature", "properties": { "CplxID": 175.0, "Borough": "Bk", "CplxName": "Hoyt - Schermerhorn Sts", "Routes": "A C G", "CplxLat": 40.688484, "CplxLong": -73.985001, "E202104": 3728.2222222222222, "E202109": 4774.0, "Pct": 0.28050306967872685, "PctCat": "21%~40%" }, "geometry": { "type": "Point", "coordinates": [ -73.985001, 40.688484 ] } },
{ "type": "Feature", "properties": { "CplxID": 266.0, "Borough": "Q", "CplxName": "Elmhurst Av", "Routes": "M R", "CplxLat": 40.742454, "CplxLong": -73.882017, "E202104": 5163.8888888888887, "E202109": 6679.1111111111113, "Pct": 0.29342657342657352, "PctCat": "21%~40%" }, "geometry": { "type": "Point", "coordinates": [ -73.882017, 40.742454 ] } },
{ "type": "Feature", "properties": { "CplxID": 262.0, "Borough": "Q", "CplxName": "67 Av", "Routes": "M R", "CplxLat": 40.726523, "CplxLong": -73.852719, "E202104": 2933.8888888888887, "E202109": 4337.8888888888887, "Pct": 0.47854572997538347, "PctCat": ">40%" }, "geometry": { "type": "Point", "coordinates": [ -73.852719, 40.726523 ] } },
{ "type": "Feature", "properties": { "CplxID": 237.0, "Borough": "Bk", "CplxName": "Carroll St", "Routes": "F G", "CplxLat": 40.680303, "CplxLong": -73.995048, "E202104": 3530.2222222222222, "E202109": 5368.2222222222226, "Pct": 0.52064711066347746, "PctCat": ">40%" }, "geometry": { "type": "Point", "coordinates": [ -73.995048, 40.680303 ] } },
{ "type": "Feature", "properties": { "CplxID": 388.0, "Borough": "Bx", "CplxName": "167 St", "Routes": "4", "CplxLat": 40.835537, "CplxLong": -73.9214, "E202104": 4762.666666666667, "E202109": 5053.0, "Pct": 0.06096024636058224, "PctCat": "<=20%" }, "geometry": { "type": "Point", "coordinates": [ -73.9214, 40.835537 ] } },
{ "type": "Feature", "properties": { "CplxID": 366.0, "Borough": "Bx", "CplxName": "Parkchester", "Routes": "6", "CplxLat": 40.833226, "CplxLong": -73.860816, "E202104": 6571.2222222222226, "E202109": 7898.5555555555557, "Pct": 0.2019918499856275, "PctCat": "21%~40%" }, "geometry": { "type": "Point", "coordinates": [ -73.860816, 40.833226 ] } },
{ "type": "Feature", "properties": { "CplxID": 458.0, "Borough": "Q", "CplxName": "46 St", "Routes": "7", "CplxLat": 40.743132, "CplxLong": -73.918435, "E202104": 5118.2222222222226, "E202109": 6681.7777777777774, "Pct": 0.30548801667245551, "PctCat": "21%~40%" }, "geometry": { "type": "Point", "coordinates": [ -73.918435, 40.743132 ] } },
{ "type": "Feature", "properties": { "CplxID": 334.0, "Borough": "Bk", "CplxName": "Clark St", "Routes": "2 3", "CplxLat": 40.697466, "CplxLong": -73.993086, "E202104": 1518.2222222222222, "E202109": 2513.1111111111113, "Pct": 0.65529859484777542, "PctCat": ">40%" }, "geometry": { "type": "Point", "coordinates": [ -73.993086, 40.697466 ] } },
{ "type": "Feature", "properties": { "CplxID": 336.0, "Borough": "Bk", "CplxName": "Hoyt St", "Routes": "2 3", "CplxLat": 40.690545, "CplxLong": -73.985065, "E202104": 2435.7777777777778, "E202109": 3409.8888888888887, "Pct": 0.39991789070340289, "PctCat": "21%~40%" }, "geometry": { "type": "Point", "coordinates": [ -73.985065, 40.690545 ] } },
{ "type": "Feature", "properties": { "CplxID": 444.0, "Borough": "Bx", "CplxName": "Gun Hill Rd", "Routes": "5", "CplxLat": 40.869526, "CplxLong": -73.846384, "E202104": 2122.8888888888887, "E202109": 2661.7777777777778, "Pct": 0.25384695907044924, "PctCat": "21%~40%" }, "geometry": { "type": "Point", "coordinates": [ -73.846384, 40.869526 ] } },
{ "type": "Feature", "properties": { "CplxID": 22.0, "Borough": "M", "CplxName": "Rector St", "Routes": "R W", "CplxLat": 40.70722, "CplxLong": -74.013342, "E202104": 1318.8888888888889, "E202109": 2028.1111111111111, "Pct": 0.53774220724515576, "PctCat": ">40%" }, "geometry": { "type": "Point", "coordinates": [ -74.013342, 40.70722 ] } },
{ "type": "Feature", "properties": { "CplxID": 49.0, "Borough": "Bk", "CplxName": "Avenue J", "Routes": "B Q", "CplxLat": 40.625039, "CplxLong": -73.960803, "E202104": 2731.0, "E202109": 2818.5555555555557, "Pct": 0.032059888522722686, "PctCat": "<=20%" }, "geometry": { "type": "Point", "coordinates": [ -73.960803, 40.625039 ] } },
{ "type": "Feature", "properties": { "CplxID": 50.0, "Borough": "Bk", "CplxName": "Avenue M", "Routes": "B Q", "CplxLat": 40.617618, "CplxLong": -73.959399, "E202104": 2586.3333333333335, "E202109": 3395.7777777777778, "Pct": 0.3129698844352794, "PctCat": "21%~40%" }, "geometry": { "type": "Point", "coordinates": [ -73.959399, 40.617618 ] } },
{ "type": "Feature", "properties": { "CplxID": 53.0, "Borough": "Bk", "CplxName": "Neck Rd", "Routes": "B Q", "CplxLat": 40.595246, "CplxLong": -73.955161, "E202104": 1713.1111111111111, "E202109": 2111.3333333333335, "Pct": 0.23245557141004031, "PctCat": "21%~40%" }, "geometry": { "type": "Point", "coordinates": [ -73.955161, 40.595246 ] } },
{ "type": "Feature", "properties": { "CplxID": 28.0, "Borough": "Bk", "CplxName": "Union St", "Routes": "R", "CplxLat": 40.677316, "CplxLong": -73.98311, "E202104": 2415.7777777777778, "E202109": 3155.8888888888887, "Pct": 0.3063655597461134, "PctCat": "21%~40%" }, "geometry": { "type": "Point", "coordinates": [ -73.98311, 40.677316 ] } },
{ "type": "Feature", "properties": { "CplxID": 33.0, "Borough": "Bk", "CplxName": "45 St", "Routes": "R", "CplxLat": 40.648939, "CplxLong": -74.010006, "E202104": 3377.3333333333335, "E202109": 4213.333333333333, "Pct": 0.24753257007500973, "PctCat": "21%~40%" }, "geometry": { "type": "Point", "coordinates": [ -74.010006, 40.648939 ] } },
{ "type": "Feature", "properties": { "CplxID": 34.0, "Borough": "Bk", "CplxName": "53 St", "Routes": "R", "CplxLat": 40.645069, "CplxLong": -74.014034, "E202104": 4118.8888888888887, "E202109": 4783.8888888888887, "Pct": 0.16145130833558133, "PctCat": "<=20%" }, "geometry": { "type": "Point", "coordinates": [ -74.014034, 40.645069 ] } },
{ "type": "Feature", "properties": { "CplxID": 61.0, "Borough": "Bk", "CplxName": "50 St", "Routes": "D", "CplxLat": 40.63626, "CplxLong": -73.994791, "E202104": 1850.1111111111111, "E202109": 1735.3333333333333, "Pct": -0.062038316017056061, "PctCat": "<=20%" }, "geometry": { "type": "Point", "coordinates": [ -73.994791, 40.63626 ] } },
{ "type": "Feature", "properties": { "CplxID": 120.0, "Borough": "Bk", "CplxName": "Bedford Av", "Routes": "L", "CplxLat": 40.717304, "CplxLong": -73.956872, "E202104": 7581.7777777777774, "E202109": 10420.777777777777, "Pct": 0.37445043671962014, "PctCat": "21%~40%" }, "geometry": { "type": "Point", "coordinates": [ -73.956872, 40.717304 ] } },
{ "type": "Feature", "properties": { "CplxID": 127.0, "Borough": "Bk", "CplxName": "DeKalb Av", "Routes": "L", "CplxLat": 40.703811, "CplxLong": -73.918425, "E202104": 4983.7777777777774, "E202109": 5636.2222222222226, "Pct": 0.13091363089133651, "PctCat": "<=20%" }, "geometry": { "type": "Point", "coordinates": [ -73.918425, 40.703811 ] } },
{ "type": "Feature", "properties": { "CplxID": 214.0, "Borough": "Bx", "CplxName": "182-183 Sts", "Routes": "B D", "CplxLat": 40.856093, "CplxLong": -73.900741, "E202104": 2227.3333333333335, "E202109": 2408.6666666666665, "Pct": 0.081412750673450926, "PctCat": "<=20%" }, "geometry": { "type": "Point", "coordinates": [ -73.900741, 40.856093 ] } },
{ "type": "Feature", "properties": { "CplxID": 271.0, "Borough": "Q", "CplxName": "Steinway St", "Routes": "M R", "CplxLat": 40.756879, "CplxLong": -73.92074, "E202104": 5143.0, "E202109": 6493.4444444444443, "Pct": 0.26257912588847837, "PctCat": "21%~40%" }, "geometry": { "type": "Point", "coordinates": [ -73.92074, 40.756879 ] } },
{ "type": "Feature", "properties": { "CplxID": 283.0, "Borough": "Bk", "CplxName": "Greenpoint Av", "Routes": "G", "CplxLat": 40.731352, "CplxLong": -73.954449, "E202104": 3816.3333333333335, "E202109": 4240.1111111111113, "Pct": 0.11104317698780099, "PctCat": "<=20%" }, "geometry": { "type": "Point", "coordinates": [ -73.954449, 40.731352 ] } },
{ "type": "Feature", "properties": { "CplxID": 231.0, "Borough": "M", "CplxName": "Grand St", "Routes": "B D", "CplxLat": 40.718267, "CplxLong": -73.993753, "E202104": 7965.2222222222226, "E202109": 11665.777777777777, "Pct": 0.46458911657622709, "PctCat": ">40%" }, "geometry": { "type": "Point", "coordinates": [ -73.993753, 40.718267 ] } },
{ "type": "Feature", "properties": { "CplxID": 241.0, "Borough": "Bk", "CplxName": "15 St - Prospect Park", "Routes": "F G", "CplxLat": 40.660365, "CplxLong": -73.979493, "E202104": 1901.4444444444443, "E202109": 2790.5555555555557, "Pct": 0.46759773271781702, "PctCat": ">40%" }, "geometry": { "type": "Point", "coordinates": [ -73.979493, 40.660365 ] } },
{ "type": "Feature", "properties": { "CplxID": 245.0, "Borough": "Bk", "CplxName": "18 Av", "Routes": "F", "CplxLat": 40.629755, "CplxLong": -73.976971, "E202104": 1822.0, "E202109": 1854.3333333333333, "Pct": 0.017746066593486969, "PctCat": "<=20%" }, "geometry": { "type": "Point", "coordinates": [ -73.976971, 40.629755 ] } },
{ "type": "Feature", "properties": { "CplxID": 387.0, "Borough": "Bx", "CplxName": "170 St", "Routes": "4", "CplxLat": 40.840075, "CplxLong": -73.917791, "E202104": 3575.6666666666665, "E202109": 4102.0, "Pct": 0.1471986575929897, "PctCat": "<=20%" }, "geometry": { "type": "Point", "coordinates": [ -73.917791, 40.840075 ] } },
{ "type": "Feature", "properties": { "CplxID": 384.0, "Borough": "Bx", "CplxName": "Burnside Av", "Routes": "4", "CplxLat": 40.853453, "CplxLong": -73.907684, "E202104": 4424.0, "E202109": 5181.333333333333, "Pct": 0.17118746232670276, "PctCat": "<=20%" }, "geometry": { "type": "Point", "coordinates": [ -73.907684, 40.853453 ] } },
{ "type": "Feature", "properties": { "CplxID": 367.0, "Borough": "Bx", "CplxName": "St Lawrence Av", "Routes": "6", "CplxLat": 40.831509, "CplxLong": -73.867618, "E202104": 1896.1111111111111, "E202109": 2138.6666666666665, "Pct": 0.12792264869616166, "PctCat": "<=20%" }, "geometry": { "type": "Point", "coordinates": [ -73.867618, 40.831509 ] } },
{ "type": "Feature", "properties": { "CplxID": 30.0, "Borough": "Bk", "CplxName": "Prospect Av", "Routes": "R", "CplxLat": 40.665414, "CplxLong": -73.992872, "E202104": 2071.2222222222222, "E202109": 3009.3333333333335, "Pct": 0.45292634515315711, "PctCat": ">40%" }, "geometry": { "type": "Point", "coordinates": [ -73.992872, 40.665414 ] } },
{ "type": "Feature", "properties": { "CplxID": 62.0, "Borough": "Bk", "CplxName": "55 St", "Routes": "D", "CplxLat": 40.631435, "CplxLong": -73.995476, "E202104": 1182.7777777777778, "E202109": 994.0, "Pct": -0.15960544856740258, "PctCat": "<=20%" }, "geometry": { "type": "Point", "coordinates": [ -73.995476, 40.631435 ] } },
{ "type": "Feature", "properties": { "CplxID": 119.0, "Borough": "M", "CplxName": "1 Av", "Routes": "L", "CplxLat": 40.730953, "CplxLong": -73.981628, "E202104": 7007.2222222222226, "E202109": 9941.4444444444453, "Pct": 0.41874256719257913, "PctCat": ">40%" }, "geometry": { "type": "Point", "coordinates": [ -73.981628, 40.730953 ] } },
{ "type": "Feature", "properties": { "CplxID": 122.0, "Borough": "Bk", "CplxName": "Graham Av", "Routes": "L", "CplxLat": 40.714565, "CplxLong": -73.944053, "E202104": 2983.1111111111113, "E202109": 3860.5555555555557, "Pct": 0.29413736591179973, "PctCat": "21%~40%" }, "geometry": { "type": "Point", "coordinates": [ -73.944053, 40.714565 ] } },
{ "type": "Feature", "properties": { "CplxID": 123.0, "Borough": "Bk", "CplxName": "Grand St", "Routes": "L", "CplxLat": 40.711926, "CplxLong": -73.94067, "E202104": 2593.4444444444443, "E202109": 3647.1111111111113, "Pct": 0.40628079345357965, "PctCat": ">40%" }, "geometry": { "type": "Point", "coordinates": [ -73.94067, 40.711926 ] } },
{ "type": "Feature", "properties": { "CplxID": 157.0, "Borough": "M", "CplxName": "96 St", "Routes": "B C", "CplxLat": 40.791642, "CplxLong": -73.964696, "E202104": 3731.2222222222222, "E202109": 4589.7777777777774, "Pct": 0.2301003543670527, "PctCat": "21%~40%" }, "geometry": { "type": "Point", "coordinates": [ -73.964696, 40.791642 ] } },
{ "type": "Feature", "properties": { "CplxID": 173.0, "Borough": "Bk", "CplxName": "High St", "Routes": "A C", "CplxLat": 40.699337, "CplxLong": -73.990531, "E202104": 2446.1111111111113, "E202109": 3869.1111111111113, "Pct": 0.58173972291619347, "PctCat": ">40%" }, "geometry": { "type": "Point", "coordinates": [ -73.990531, 40.699337 ] } },
{ "type": "Feature", "properties": { "CplxID": 216.0, "Borough": "Bx", "CplxName": "174-175 Sts", "Routes": "B D", "CplxLat": 40.8459, "CplxLong": -73.910136, "E202104": 2330.5555555555557, "E202109": 2606.2222222222222, "Pct": 0.11828367103694867, "PctCat": "<=20%" }, "geometry": { "type": "Point", "coordinates": [ -73.910136, 40.8459 ] } },
{ "type": "Feature", "properties": { "CplxID": 265.0, "Borough": "Q", "CplxName": "Grand Av - Newtown", "Routes": "M R", "CplxLat": 40.737015, "CplxLong": -73.877223, "E202104": 7198.8888888888887, "E202109": 9497.2222222222226, "Pct": 0.31926223182589913, "PctCat": "21%~40%" }, "geometry": { "type": "Point", "coordinates": [ -73.877223, 40.737015 ] } },
{ "type": "Feature", "properties": { "CplxID": 258.0, "Borough": "Q", "CplxName": "Briarwood - Van Wyck Blvd", "Routes": "E F", "CplxLat": 40.709179, "CplxLong": -73.820574, "E202104": 1868.5555555555557, "E202109": 2590.4444444444443, "Pct": 0.38633525599096141, "PctCat": "21%~40%" }, "geometry": { "type": "Point", "coordinates": [ -73.820574, 40.709179 ] } },
{ "type": "Feature", "properties": { "CplxID": 284.0, "Borough": "Bk", "CplxName": "Nassau Av", "Routes": "G", "CplxLat": 40.724635, "CplxLong": -73.951277, "E202104": 3310.7777777777778, "E202109": 3921.8888888888887, "Pct": 0.18458234050407751, "PctCat": "<=20%" }, "geometry": { "type": "Point", "coordinates": [ -73.951277, 40.724635 ] } },
{ "type": "Feature", "properties": { "CplxID": 234.0, "Borough": "M", "CplxName": "East Broadway", "Routes": "F", "CplxLat": 40.713715, "CplxLong": -73.990173, "E202104": 4383.8888888888887, "E202109": 6262.1111111111113, "Pct": 0.4284374603979218, "PctCat": ">40%" }, "geometry": { "type": "Point", "coordinates": [ -73.990173, 40.713715 ] } },
{ "type": "Feature", "properties": { "CplxID": 608.0, "Borough": "Bk", "CplxName": "4 Av - 9 St", "Routes": "R F G", "CplxLat": 40.67032, "CplxLong": -73.988757, "E202104": 4462.333333333333, "E202109": 6026.0, "Pct": 0.35041458131022646, "PctCat": "21%~40%" }, "geometry": { "type": "Point", "coordinates": [ -73.988757, 40.67032 ] } },
{ "type": "Feature", "properties": { "CplxID": 222.0, "Borough": "M", "CplxName": "Roosevelt Island", "Routes": "F", "CplxLat": 40.759145, "CplxLong": -73.95326, "E202104": 2722.6666666666665, "E202109": 3689.1111111111113, "Pct": 0.35496245510937002, "PctCat": "21%~40%" }, "geometry": { "type": "Point", "coordinates": [ -73.95326, 40.759145 ] } },
{ "type": "Feature", "properties": { "CplxID": 459.0, "Borough": "Q", "CplxName": "40 St", "Routes": "7", "CplxLat": 40.743781, "CplxLong": -73.924016, "E202104": 3509.1111111111113, "E202109": 5101.666666666667, "Pct": 0.45383446266860872, "PctCat": ">40%" }, "geometry": { "type": "Point", "coordinates": [ -73.924016, 40.743781 ] } },
{ "type": "Feature", "properties": { "CplxID": 45.0, "Borough": "Bk", "CplxName": "Beverley Rd", "Routes": "B Q", "CplxLat": 40.644031, "CplxLong": -73.964492, "E202104": 1385.3333333333333, "E202109": 1827.5555555555557, "Pct": 0.31921719602181597, "PctCat": "21%~40%" }, "geometry": { "type": "Point", "coordinates": [ -73.964492, 40.644031 ] } },
{ "type": "Feature", "properties": { "CplxID": 48.0, "Borough": "Bk", "CplxName": "Avenue H", "Routes": "B Q", "CplxLat": 40.62927, "CplxLong": -73.961639, "E202104": 961.77777777777783, "E202109": 1495.6666666666667, "Pct": 0.55510628465804068, "PctCat": ">40%" }, "geometry": { "type": "Point", "coordinates": [ -73.961639, 40.62927 ] } },
{ "type": "Feature", "properties": { "CplxID": 56.0, "Borough": "Bk", "CplxName": "Ocean Pkwy", "Routes": "Q", "CplxLat": 40.576312, "CplxLong": -73.968501, "E202104": 1511.0, "E202109": 1864.8888888888889, "Pct": 0.23420839767629975, "PctCat": "21%~40%" }, "geometry": { "type": "Point", "coordinates": [ -73.968501, 40.576312 ] } },
{ "type": "Feature", "properties": { "CplxID": 124.0, "Borough": "Bk", "CplxName": "Montrose Av", "Routes": "L", "CplxLat": 40.707739, "CplxLong": -73.93985, "E202104": 2399.6666666666665, "E202109": 3021.7777777777778, "Pct": 0.25924896976431921, "PctCat": "21%~40%" }, "geometry": { "type": "Point", "coordinates": [ -73.93985, 40.707739 ] } },
{ "type": "Feature", "properties": { "CplxID": 129.0, "Borough": "Q", "CplxName": "Halsey St", "Routes": "L", "CplxLat": 40.695602, "CplxLong": -73.904084, "E202104": 3070.8888888888887, "E202109": 3668.1111111111113, "Pct": 0.19447861639771344, "PctCat": "<=20%" }, "geometry": { "type": "Point", "coordinates": [ -73.904084, 40.695602 ] } },
{ "type": "Feature", "properties": { "CplxID": 270.0, "Borough": "Q", "CplxName": "46 St", "Routes": "M R", "CplxLat": 40.756312, "CplxLong": -73.913333, "E202104": 3060.6666666666665, "E202109": 4065.6666666666665, "Pct": 0.32835983445872363, "PctCat": "21%~40%" }, "geometry": { "type": "Point", "coordinates": [ -73.913333, 40.756312 ] } },
{ "type": "Feature", "properties": { "CplxID": 629.0, "Borough": "Bk", "CplxName": "Metropolitan Av \/ Lorimer St", "Routes": "L G", "CplxLat": 40.713875, "CplxLong": -73.951592, "E202104": 4340.7777777777774, "E202109": 5613.8888888888887, "Pct": 0.29329101287531684, "PctCat": "21%~40%" }, "geometry": { "type": "Point", "coordinates": [ -73.951592, 40.713875 ] } },
{ "type": "Feature", "properties": { "CplxID": 289.0, "Borough": "Bk", "CplxName": "Bedford - Nostrand Avs", "Routes": "G", "CplxLat": 40.689627, "CplxLong": -73.953522, "E202104": 2956.6666666666665, "E202109": 3581.6666666666665, "Pct": 0.21138669673055244, "PctCat": "21%~40%" }, "geometry": { "type": "Point", "coordinates": [ -73.953522, 40.689627 ] } },
{ "type": "Feature", "properties": { "CplxID": 238.0, "Borough": "Bk", "CplxName": "Smith - 9 Sts", "Routes": "F G", "CplxLat": 40.67358, "CplxLong": -73.995959, "E202104": 1764.1111111111111, "E202109": 2018.1111111111111, "Pct": 0.14398186055300119, "PctCat": "<=20%" }, "geometry": { "type": "Point", "coordinates": [ -73.995959, 40.67358 ] } },
{ "type": "Feature", "properties": { "CplxID": 252.0, "Borough": "Bk", "CplxName": "Avenue X", "Routes": "F", "CplxLat": 40.58962, "CplxLong": -73.97425, "E202104": 1181.6666666666667, "E202109": 1397.0, "Pct": 0.18222849083215789, "PctCat": "<=20%" }, "geometry": { "type": "Point", "coordinates": [ -73.97425, 40.58962 ] } },
{ "type": "Feature", "properties": { "CplxID": 319.0, "Borough": "M", "CplxName": "28 St", "Routes": "1", "CplxLat": 40.747215, "CplxLong": -73.993365, "E202104": 2937.0, "E202109": 5063.2222222222226, "Pct": 0.72394355540422972, "PctCat": ">40%" }, "geometry": { "type": "Point", "coordinates": [ -73.993365, 40.747215 ] } },
{ "type": "Feature", "properties": { "CplxID": 304.0, "Borough": "M", "CplxName": "145 St", "Routes": "1", "CplxLat": 40.826551, "CplxLong": -73.95036, "E202104": 3659.6666666666665, "E202109": 4771.7777777777774, "Pct": 0.30388317090202505, "PctCat": "21%~40%" }, "geometry": { "type": "Point", "coordinates": [ -73.95036, 40.826551 ] } },
{ "type": "Feature", "properties": { "CplxID": 300.0, "Borough": "M", "CplxName": "191 St", "Routes": "1", "CplxLat": 40.855225, "CplxLong": -73.929412, "E202104": 3660.8888888888887, "E202109": 4791.333333333333, "Pct": 0.30878960786694182, "PctCat": "21%~40%" }, "geometry": { "type": "Point", "coordinates": [ -73.929412, 40.855225 ] } },
{ "type": "Feature", "properties": { "CplxID": 383.0, "Borough": "Bx", "CplxName": "183 St", "Routes": "4", "CplxLat": 40.858407, "CplxLong": -73.903879, "E202104": 2834.2222222222222, "E202109": 3244.4444444444443, "Pct": 0.14473890544143012, "PctCat": "<=20%" }, "geometry": { "type": "Point", "coordinates": [ -73.903879, 40.858407 ] } },
{ "type": "Feature", "properties": { "CplxID": 464.0, "Borough": "Q", "CplxName": "Vernon Blvd - Jackson Av", "Routes": "7", "CplxLat": 40.742626, "CplxLong": -73.953581, "E202104": 4982.1111111111113, "E202109": 6197.333333333333, "Pct": 0.24391712571645208, "PctCat": "21%~40%" }, "geometry": { "type": "Point", "coordinates": [ -73.953581, 40.742626 ] } },
{ "type": "Feature", "properties": { "CplxID": 353.0, "Borough": "Bk", "CplxName": "President St", "Routes": "2 5", "CplxLat": 40.667883, "CplxLong": -73.950683, "E202104": 1478.2222222222222, "E202109": 1843.6666666666667, "Pct": 0.24721888153938673, "PctCat": "21%~40%" }, "geometry": { "type": "Point", "coordinates": [ -73.950683, 40.667883 ] } },
{ "type": "Feature", "properties": { "CplxID": 31.0, "Borough": "Bk", "CplxName": "25 St", "Routes": "R", "CplxLat": 40.660397, "CplxLong": -73.998091, "E202104": 1577.6666666666667, "E202109": 1983.5555555555557, "Pct": 0.25727163884780618, "PctCat": "21%~40%" }, "geometry": { "type": "Point", "coordinates": [ -73.998091, 40.660397 ] } },
{ "type": "Feature", "properties": { "CplxID": 126.0, "Borough": "Bk", "CplxName": "Jefferson St", "Routes": "L", "CplxLat": 40.706607, "CplxLong": -73.922913, "E202104": 2599.1111111111113, "E202109": 3244.4444444444443, "Pct": 0.24829001367989043, "PctCat": "21%~40%" }, "geometry": { "type": "Point", "coordinates": [ -73.922913, 40.706607 ] } },
{ "type": "Feature", "properties": { "CplxID": 145.0, "Borough": "M", "CplxName": "190 St", "Routes": "A", "CplxLat": 40.859022, "CplxLong": -73.93418, "E202104": 1152.7777777777778, "E202109": 1390.4444444444443, "Pct": 0.20616867469879505, "PctCat": "21%~40%" }, "geometry": { "type": "Point", "coordinates": [ -73.93418, 40.859022 ] } },
{ "type": "Feature", "properties": { "CplxID": 160.0, "Borough": "M", "CplxName": "72 St", "Routes": "B C", "CplxLat": 40.775594, "CplxLong": -73.97641, "E202104": 2684.5555555555557, "E202109": 3752.4444444444443, "Pct": 0.3977898265800256, "PctCat": "21%~40%" }, "geometry": { "type": "Point", "coordinates": [ -73.97641, 40.775594 ] } },
{ "type": "Feature", "properties": { "CplxID": 168.0, "Borough": "M", "CplxName": "Spring St", "Routes": "C E", "CplxLat": 40.726227, "CplxLong": -74.003739, "E202104": 3093.3333333333335, "E202109": 4618.5555555555557, "Pct": 0.49306752873563214, "PctCat": ">40%" }, "geometry": { "type": "Point", "coordinates": [ -74.003739, 40.726227 ] } },
{ "type": "Feature", "properties": { "CplxID": 176.0, "Borough": "Bk", "CplxName": "Lafayette Av", "Routes": "C", "CplxLat": 40.686113, "CplxLong": -73.973946, "E202104": 1544.7777777777778, "E202109": 2392.2222222222222, "Pct": 0.5485866359778464, "PctCat": ">40%" }, "geometry": { "type": "Point", "coordinates": [ -73.973946, 40.686113 ] } },
{ "type": "Feature", "properties": { "CplxID": 177.0, "Borough": "Bk", "CplxName": "Clinton - Washington Avs", "Routes": "C", "CplxLat": 40.683263, "CplxLong": -73.965838, "E202104": 1748.0, "E202109": 2809.2222222222222, "Pct": 0.60710653445207219, "PctCat": ">40%" }, "geometry": { "type": "Point", "coordinates": [ -73.965838, 40.683263 ] } },
{ "type": "Feature", "properties": { "CplxID": 209.0, "Borough": "Q", "CplxName": "Far Rockaway - Mott Av", "Routes": "A", "CplxLat": 40.603995, "CplxLong": -73.755405, "E202104": 2185.8888888888887, "E202109": 2228.3333333333335, "Pct": 0.019417475728155505, "PctCat": "<=20%" }, "geometry": { "type": "Point", "coordinates": [ -73.755405, 40.603995 ] } },
{ "type": "Feature", "properties": { "CplxID": 288.0, "Borough": "Bk", "CplxName": "Myrtle - Willoughby Avs", "Routes": "G", "CplxLat": 40.694568, "CplxLong": -73.949046, "E202104": 2148.0, "E202109": 2458.5555555555557, "Pct": 0.14457893647837786, "PctCat": "<=20%" }, "geometry": { "type": "Point", "coordinates": [ -73.949046, 40.694568 ] } },
{ "type": "Feature", "properties": { "CplxID": 290.0, "Borough": "Bk", "CplxName": "Classon Av", "Routes": "G", "CplxLat": 40.688873, "CplxLong": -73.96007, "E202104": 1863.3333333333333, "E202109": 2488.2222222222222, "Pct": 0.33536076326774006, "PctCat": "21%~40%" }, "geometry": { "type": "Point", "coordinates": [ -73.96007, 40.688873 ] } },
{ "type": "Feature", "properties": { "CplxID": 240.0, "Borough": "Bk", "CplxName": "7 Av", "Routes": "F G", "CplxLat": 40.666271, "CplxLong": -73.980305, "E202104": 3780.1111111111113, "E202109": 5822.0, "Pct": 0.5401663678316333, "PctCat": ">40%" }, "geometry": { "type": "Point", "coordinates": [ -73.980305, 40.666271 ] } },
{ "type": "Feature", "properties": { "CplxID": 242.0, "Borough": "Bk", "CplxName": "Fort Hamilton Pkwy", "Routes": "F G", "CplxLat": 40.650782, "CplxLong": -73.975776, "E202104": 1870.1111111111111, "E202109": 3001.6666666666665, "Pct": 0.60507397064939694, "PctCat": ">40%" }, "geometry": { "type": "Point", "coordinates": [ -73.975776, 40.650782 ] } },
{ "type": "Feature", "properties": { "CplxID": 324.0, "Borough": "M", "CplxName": "Houston St", "Routes": "1", "CplxLat": 40.728251, "CplxLong": -74.005367, "E202104": 2972.1111111111113, "E202109": 4532.7777777777774, "Pct": 0.52510374219596967, "PctCat": ">40%" }, "geometry": { "type": "Point", "coordinates": [ -74.005367, 40.728251 ] } },
{ "type": "Feature", "properties": { "CplxID": 460.0, "Borough": "Q", "CplxName": "33 St", "Routes": "7", "CplxLat": 40.744587, "CplxLong": -73.930997, "E202104": 2617.8888888888887, "E202109": 4697.7777777777774, "Pct": 0.79449089597215738, "PctCat": ">40%" }, "geometry": { "type": "Point", "coordinates": [ -73.930997, 40.744587 ] } },
{ "type": "Feature", "properties": { "CplxID": 443.0, "Borough": "Bx", "CplxName": "Baychester Av", "Routes": "5", "CplxLat": 40.878663, "CplxLong": -73.838591, "E202104": 1340.3333333333333, "E202109": 1887.0, "Pct": 0.4078587416065656, "PctCat": ">40%" }, "geometry": { "type": "Point", "coordinates": [ -73.838591, 40.878663 ] } },
{ "type": "Feature", "properties": { "CplxID": 125.0, "Borough": "Bk", "CplxName": "Morgan Av", "Routes": "L", "CplxLat": 40.706152, "CplxLong": -73.933147, "E202104": 2128.2222222222222, "E202109": 2968.7777777777778, "Pct": 0.39495666701472282, "PctCat": "21%~40%" }, "geometry": { "type": "Point", "coordinates": [ -73.933147, 40.706152 ] } },
{ "type": "Feature", "properties": { "CplxID": 130.0, "Borough": "Bk", "CplxName": "Wilson Av", "Routes": "L", "CplxLat": 40.688764, "CplxLong": -73.904046, "E202104": 1741.4444444444443, "E202109": 2189.7777777777778, "Pct": 0.25744911631468143, "PctCat": "21%~40%" }, "geometry": { "type": "Point", "coordinates": [ -73.904046, 40.688764 ] } },
{ "type": "Feature", "properties": { "CplxID": 149.0, "Borough": "M", "CplxName": "163 St - Amsterdam Av", "Routes": "C", "CplxLat": 40.836013, "CplxLong": -73.939892, "E202104": 1658.4444444444443, "E202109": 1995.2222222222222, "Pct": 0.20306847112421283, "PctCat": "21%~40%" }, "geometry": { "type": "Point", "coordinates": [ -73.939892, 40.836013 ] } },
{ "type": "Feature", "properties": { "CplxID": 627.0, "Borough": "Bk", "CplxName": "Franklin Av", "Routes": "S C", "CplxLat": 40.681159, "CplxLong": -73.956056, "E202104": 2050.6666666666665, "E202109": 2443.7777777777778, "Pct": 0.19169917641959267, "PctCat": "<=20%" }, "geometry": { "type": "Point", "coordinates": [ -73.956056, 40.681159 ] } },
{ "type": "Feature", "properties": { "CplxID": 269.0, "Borough": "Q", "CplxName": "Northern Blvd", "Routes": "M R", "CplxLat": 40.752885, "CplxLong": -73.906006, "E202104": 2909.4444444444443, "E202109": 3451.5555555555557, "Pct": 0.18632805041054046, "PctCat": "<=20%" }, "geometry": { "type": "Point", "coordinates": [ -73.906006, 40.752885 ] } },
{ "type": "Feature", "properties": { "CplxID": 286.0, "Borough": "Bk", "CplxName": "Broadway", "Routes": "G", "CplxLat": 40.706092, "CplxLong": -73.950308, "E202104": 2141.3333333333335, "E202109": 2401.7777777777778, "Pct": 0.12162723121627225, "PctCat": "<=20%" }, "geometry": { "type": "Point", "coordinates": [ -73.950308, 40.706092 ] } },
{ "type": "Feature", "properties": { "CplxID": 232.0, "Borough": "M", "CplxName": "2 Av", "Routes": "F", "CplxLat": 40.723402, "CplxLong": -73.989938, "E202104": 4323.0, "E202109": 6271.5555555555557, "Pct": 0.4507415118102141, "PctCat": ">40%" }, "geometry": { "type": "Point", "coordinates": [ -73.989938, 40.723402 ] } },
{ "type": "Feature", "properties": { "CplxID": 235.0, "Borough": "Bk", "CplxName": "York St", "Routes": "F", "CplxLat": 40.701397, "CplxLong": -73.986751, "E202104": 2919.4444444444443, "E202109": 4216.2222222222226, "Pct": 0.44418648905804015, "PctCat": ">40%" }, "geometry": { "type": "Point", "coordinates": [ -73.986751, 40.701397 ] } },
{ "type": "Feature", "properties": { "CplxID": 224.0, "Borough": "M", "CplxName": "57 St", "Routes": "F", "CplxLat": 40.763972, "CplxLong": -73.97745, "E202104": 3268.1111111111113, "E202109": 4857.0, "Pct": 0.48617958045762066, "PctCat": ">40%" }, "geometry": { "type": "Point", "coordinates": [ -73.97745, 40.763972 ] } },
{ "type": "Feature", "properties": { "CplxID": 221.0, "Borough": "Q", "CplxName": "21 St - Queensbridge", "Routes": "F", "CplxLat": 40.754203, "CplxLong": -73.942836, "E202104": 3920.8888888888887, "E202109": 4870.8888888888887, "Pct": 0.24229199727952846, "PctCat": "21%~40%" }, "geometry": { "type": "Point", "coordinates": [ -73.942836, 40.754203 ] } },
{ "type": "Feature", "properties": { "CplxID": 329.0, "Borough": "M", "CplxName": "Rector St", "Routes": "1", "CplxLat": 40.707513, "CplxLong": -74.013783, "E202104": 1527.8888888888889, "E202109": 2521.4444444444443, "Pct": 0.65027997963784445, "PctCat": ">40%" }, "geometry": { "type": "Point", "coordinates": [ -74.013783, 40.707513 ] } },
{ "type": "Feature", "properties": { "CplxID": 328.0, "Borough": "M", "CplxName": "Cortlandt St", "Routes": "1", "CplxLat": 40.711835, "CplxLong": -74.012188, "E202104": 2083.8888888888887, "E202109": 3725.1111111111113, "Pct": 0.78757664622767287, "PctCat": ">40%" }, "geometry": { "type": "Point", "coordinates": [ -74.012188, 40.711835 ] } },
{ "type": "Feature", "properties": { "CplxID": 294.0, "Borough": "Bx", "CplxName": "238 St", "Routes": "1", "CplxLat": 40.884667, "CplxLong": -73.90087, "E202104": 1712.1111111111111, "E202109": 2244.4444444444443, "Pct": 0.31092218833149454, "PctCat": "21%~40%" }, "geometry": { "type": "Point", "coordinates": [ -73.90087, 40.884667 ] } },
{ "type": "Feature", "properties": { "CplxID": 391.0, "Borough": "Bx", "CplxName": "138 St - Grand Concourse", "Routes": "4 5", "CplxLat": 40.813224, "CplxLong": -73.929849, "E202104": 1704.1111111111111, "E202109": 1983.6666666666667, "Pct": 0.16404772771728507, "PctCat": "<=20%" }, "geometry": { "type": "Point", "coordinates": [ -73.929849, 40.813224 ] } },
{ "type": "Feature", "properties": { "CplxID": 386.0, "Borough": "Bx", "CplxName": "Mt Eden Av", "Routes": "4", "CplxLat": 40.844434, "CplxLong": -73.914685, "E202104": 2478.6666666666665, "E202109": 2839.1111111111113, "Pct": 0.1454186838802225, "PctCat": "<=20%" }, "geometry": { "type": "Point", "coordinates": [ -73.914685, 40.844434 ] } },
{ "type": "Feature", "properties": { "CplxID": 385.0, "Borough": "Bx", "CplxName": "176 St", "Routes": "4", "CplxLat": 40.84848, "CplxLong": -73.911794, "E202104": 2545.5555555555557, "E202109": 2913.3333333333335, "Pct": 0.14447839371453516, "PctCat": "<=20%" }, "geometry": { "type": "Point", "coordinates": [ -73.911794, 40.84848 ] } },
{ "type": "Feature", "properties": { "CplxID": 449.0, "Borough": "Q", "CplxName": "111 St", "Routes": "7", "CplxLat": 40.75173, "CplxLong": -73.855334, "E202104": 6400.2222222222226, "E202109": 7474.8888888888887, "Pct": 0.16791083642929056, "PctCat": "<=20%" }, "geometry": { "type": "Point", "coordinates": [ -73.855334, 40.75173 ] } },
{ "type": "Feature", "properties": { "CplxID": 103.0, "Borough": "M", "CplxName": "Bowery", "Routes": "J Z", "CplxLat": 40.72028, "CplxLong": -73.993915, "E202104": 843.22222222222217, "E202109": 1477.3333333333333, "Pct": 0.75200948741599682, "PctCat": ">40%" }, "geometry": { "type": "Point", "coordinates": [ -73.993915, 40.72028 ] } },
{ "type": "Feature", "properties": { "CplxID": 57.0, "Borough": "Bk", "CplxName": "W 8 St - NY Aquarium", "Routes": "F Q", "CplxLat": 40.576127, "CplxLong": -73.975939, "E202104": 933.33333333333337, "E202109": 1202.3333333333333, "Pct": 0.28821428571428559, "PctCat": "21%~40%" }, "geometry": { "type": "Point", "coordinates": [ -73.975939, 40.576127 ] } },
{ "type": "Feature", "properties": { "CplxID": 131.0, "Borough": "Bk", "CplxName": "Bushwick Av - Aberdeen St", "Routes": "L", "CplxLat": 40.682829, "CplxLong": -73.905249, "E202104": 949.11111111111109, "E202109": 1160.1111111111111, "Pct": 0.2223132755794896, "PctCat": "21%~40%" }, "geometry": { "type": "Point", "coordinates": [ -73.905249, 40.682829 ] } },
{ "type": "Feature", "properties": { "CplxID": 156.0, "Borough": "M", "CplxName": "103 St", "Routes": "B C", "CplxLat": 40.796092, "CplxLong": -73.961454, "E202104": 1523.5555555555557, "E202109": 2038.3333333333333, "Pct": 0.33787922987164515, "PctCat": "21%~40%" }, "geometry": { "type": "Point", "coordinates": [ -73.961454, 40.796092 ] } },
{ "type": "Feature", "properties": { "CplxID": 220.0, "Borough": "M", "CplxName": "155 St", "Routes": "B D", "CplxLat": 40.830135, "CplxLong": -73.938209, "E202104": 1539.2222222222222, "E202109": 1906.3333333333333, "Pct": 0.2385042950985346, "PctCat": "21%~40%" }, "geometry": { "type": "Point", "coordinates": [ -73.938209, 40.830135 ] } },